[
  {
    "_id": "665d9f450350b667a00d4461",
    "name": "Madang Airport",
    "city": "Madang",
    "country": "Papua New Guinea",
    "IATA": "MAG",
    "ICAO": "AYMD",
    "latitude": -5.20707988739,
    "longitude": 145.789001465,
    "altitude": 20,
    "timezone": "10",
    "DST": "U",
    "tz_database": "Pacific/Port_Moresby",
    "type": "airport",
    "source": "OurAirports",
    "city_latitude": -5.2167,
    "city_longitude": 145.8
  },
  {
    "_id": "665d9f450350b667a00d4468",
    "name": "Kangerlussuaq Airport",
    "city": "Sondrestrom",
    "country": "Greenland",
    "IATA": "SFJ",
    "ICAO": "BGSF",
    "latitude": 67.0122218992,
    "longitude": -50.7116031647,
    "altitude": 165,
    "timezone": "-3",
    "DST": "E",
    "tz_database": "America/Godthab",
    "type": "airport",
    "source": "OurAirports",
    "city_latitude": 67.0122218992,
    "city_longitude": -50.7116031647
  },
  {
    "_id": "665d9f450350b667a00d4469",
    "name": "Thule Air Base",
    "city": "Thule",
    "country": "Greenland",
    "IATA": "THU",
    "ICAO": "BGTL",
    "latitude": 76.5311965942,
    "longitude": -68.7032012939,
    "altitude": 251,
    "timezone": "-4",
    "DST": "E",
    "tz_database": "America/Thule",
    "type": "airport",
    "source": "OurAirports",
    "city_latitude": 76.5311965942,
    "city_longitude": -68.7032012939
  },
  {
    "_id": "665d9f450350b667a00d446b",
    "name": "Egilssta\u00f0ir Airport",
    "city": "Egilsstadir",
    "country": "Iceland",
    "IATA": "EGS",
    "ICAO": "BIEG",
    "latitude": 65.2833023071289,
    "longitude": -14.401399612426758,
    "altitude": 76,
    "timezone": "0",
    "DST": "N",
    "tz_database": "Atlantic/Reykjavik",
    "type": "airport",
    "source": "OurAirports",
    "city_latitude": 65.2833023071289,
    "city_longitude": -14.401399612426758
  },
  {
    "_id": "665d9f450350b667a00d446e",
    "name": "\u00cdsafj\u00f6r\u00f0ur Airport",
    "city": "Isafjordur",
    "country": "Iceland",
    "IATA": "IFJ",
    "ICAO": "BIIS",
    "latitude": 66.05809783935547,
    "longitude": -23.135299682617188,
    "altitude": 8,
    "timezone": "0",
    "DST": "N",
    "tz_database": "Atlantic/Reykjavik",
    "type": "airport",
    "source": "OurAirports",
    "city_latitude": 66.05809783935547,
    "city_longitude": -23.135299682617188
  },
  {
    "_id": "665d9f450350b667a00d4470",
    "name": "Patreksfj\u00f6r\u00f0ur Airport",
    "city": "Patreksfjordur",
    "country": "Iceland",
    "IATA": "PFJ",
    "ICAO": "BIPA",
    "latitude": 65.555801,
    "longitude": -23.965,
    "altitude": 11,
    "timezone": "0",
    "DST": "N",
    "tz_database": "Atlantic/Reykjavik",
    "type": "airport",
    "source": "OurAirports",
    "city_latitude": 65.555801,
    "city_longitude": -23.965
  },
  {
    "_id": "665d9f450350b667a00d4477",
    "name": "St. Anthony Airport",
    "city": "St. Anthony",
    "country": "Canada",
    "IATA": "YAY",
    "ICAO": "CYAY",
    "latitude": 51.3918991089,
    "longitude": -56.083099365200006,
    "altitude": 108,
    "timezone": "-3.5",
    "DST": "A",
    "tz_database": "America/St_Johns",
    "type": "airport",
    "source": "OurAirports",
    "city_latitude": 51.3918991089,
    "city_longitude": -56.083099365200006
  },
  {
    "_id": "665d9f450350b667a00d4478",
    "name": "Tofino / Long Beach Airport",
    "city": "Tofino",
    "country": "Canada",
    "IATA": "YAZ",
    "ICAO": "CYAZ",
    "latitude": 49.079833,
    "longitude": -125.775583,
    "altitude": 80,
    "timezone": "-8",
    "DST": "A",
    "tz_database": "America/Vancouver",
    "type": "airport",
    "source": "OurAirports",
    "city_latitude": 49.079833,
    "city_longitude": -125.775583
  },
  {
    "_id": "665d9f450350b667a00d447a",
    "name": "Baie Comeau Airport",
    "city": "Baie Comeau",
    "country": "Canada",
    "IATA": "YBC",
    "ICAO": "CYBC",
    "latitude": 49.13249969482422,
    "longitude": -68.20439910888672,
    "altitude": 71,
    "timezone": "-5",
    "DST": "A",
    "tz_database": "America/Toronto",
    "type": "airport",
    "source": "OurAirports",
    "city_latitude": 49.13249969482422,
    "city_longitude": -68.20439910888672
  },
  {
    "_id": "665d9f450350b667a00d447b",
    "name": "CFB Bagotville",
    "city": "Bagotville",
    "country": "Canada",
    "IATA": "YBG",
    "ICAO": "CYBG",
    "latitude": 48.33060073852539,
    "longitude": -70.99639892578125,
    "altitude": 522,
    "timezone": "-5",
    "DST": "A",
    "tz_database": "America/Toronto",
    "type": "airport",
    "source": "OurAirports",
    "city_latitude": 48.33060073852539,
    "city_longitude": -70.99639892578125
  },
  {
    "_id": "665d9f450350b667a00d447f",
    "name": "Cambridge Bay Airport",
    "city": "Cambridge Bay",
    "country": "Canada",
    "IATA": "YCB",
    "ICAO": "CYCB",
    "latitude": 69.1081008911,
    "longitude": -105.138000488,
    "altitude": 90,
    "timezone": "-7",
    "DST": "A",
    "tz_database": "America/Edmonton",
    "type": "airport",
    "source": "OurAirports",
    "city_latitude": 69.1081008911,
    "city_longitude": -105.138000488
  },
  {
    "_id": "665d9f450350b667a00d4488",
    "name": "Coral Harbour Airport",
    "city": "Coral Harbour",
    "country": "Canada",
    "IATA": "YZS",
    "ICAO": "CYZS",
    "latitude": 64.1932983398,
    "longitude": -83.3593978882,
    "altitude": 210,
    "timezone": "-5",
    "DST": "A",
    "tz_database": "America/Coral_Harbour",
    "type": "airport",
    "source": "OurAirports",
    "city_latitude": 64.1932983398,
    "city_longitude": -83.3593978882
  },
  {
    "_id": "665d9f450350b667a00d448b",
    "name": "Princeton Airport",
    "city": "Princeton",
    "country": "Canada",
    "IATA": "\\N",
    "ICAO": "CYDC",
    "latitude": 49.4681015015,
    "longitude": -120.511001587,
    "altitude": 2298,
    "timezone": "-8",
    "DST": "A",
    "tz_database": "America/Vancouver",
    "type": "airport",
    "source": "OurAirports",
    "city_latitude": 49.4681015015,
    "city_longitude": -120.511001587
  },
  {
    "_id": "665d9f450350b667a00d448e",
    "name": "Dauphin Barker Airport",
    "city": "Dauphin",
    "country": "Canada",
    "IATA": "YDN",
    "ICAO": "CYDN",
    "latitude": 51.10079956054688,
    "longitude": -100.052001953125,
    "altitude": 999,
    "timezone": "-6",
    "DST": "A",
    "tz_database": "America/Winnipeg",
    "type": "airport",
    "source": "OurAirports",
    "city_latitude": 51.10079956054688,
    "city_longitude": -100.052001953125
  },
  {
    "_id": "665d9f450350b667a00d448f",
    "name": "Dawson Creek Airport",
    "city": "Dawson Creek",
    "country": "Canada",
    "IATA": "YDQ",
    "ICAO": "CYDQ",
    "latitude": 55.7422981262207,
    "longitude": -120.18299865722656,
    "altitude": 2148,
    "timezone": "-7",
    "DST": "A",
    "tz_database": "America/Dawson_Creek",
    "type": "airport",
    "source": "OurAirports",
    "city_latitude": 55.7606,
    "city_longitude": -120.2356
  },
  {
    "_id": "665d9f450350b667a00d4496",
    "name": "Iqaluit Airport",
    "city": "Iqaluit",
    "country": "Canada",
    "IATA": "YFB",
    "ICAO": "CYFB",
    "latitude": 63.756402,
    "longitude": -68.555801,
    "altitude": 110,
    "timezone": "-5",
    "DST": "A",
    "tz_database": "America/Toronto",
    "type": "airport",
    "source": "OurAirports",
    "city_latitude": 63.7598,
    "city_longitude": -68.5107
  },
  {
    "_id": "665d9f450350b667a00d4498",
    "name": "Forestville Airport",
    "city": "Forestville",
    "country": "Canada",
    "IATA": "YFE",
    "ICAO": "CYFE",
    "latitude": 48.74610137939453,
    "longitude": -69.09719848632812,
    "altitude": 293,
    "timezone": "-5",
    "DST": "A",
    "tz_database": "America/Toronto",
    "type": "airport",
    "source": "OurAirports",
    "city_latitude": 48.74610137939453,
    "city_longitude": -69.09719848632812
  },
  {
    "_id": "665d9f450350b667a00d446a",
    "name": "Akureyri Airport",
    "city": "Akureyri",
    "country": "Iceland",
    "IATA": "AEY",
    "ICAO": "BIAR",
    "latitude": 65.66000366210938,
    "longitude": -18.07270050048828,
    "altitude": 6,
    "timezone": "0",
    "DST": "N",
    "tz_database": "Atlantic/Reykjavik",
    "type": "airport",
    "source": "OurAirports",
    "city_latitude": 65.6833,
    "city_longitude": -18.1
  },
  {
    "_id": "665d9f450350b667a00d4460",
    "name": "Goroka Airport",
    "city": "Goroka",
    "country": "Papua New Guinea",
    "IATA": "GKA",
    "ICAO": "AYGA",
    "latitude": -6.081689834590001,
    "longitude": 145.391998291,
    "altitude": 5282,
    "timezone": "10",
    "DST": "U",
    "tz_database": "Pacific/Port_Moresby",
    "type": "airport",
    "source": "OurAirports",
    "city_latitude": -6.0833,
    "city_longitude": 145.3833
  },
  {
    "_id": "665d9f450350b667a00d4471",
    "name": "Reykjavik Airport",
    "city": "Reykjavik",
    "country": "Iceland",
    "IATA": "RKV",
    "ICAO": "BIRK",
    "latitude": 64.1299972534,
    "longitude": -21.9405994415,
    "altitude": 48,
    "timezone": "0",
    "DST": "N",
    "tz_database": "Atlantic/Reykjavik",
    "type": "airport",
    "source": "OurAirports",
    "city_latitude": 64.1467,
    "city_longitude": -21.94
  },
  {
    "_id": "665d9f450350b667a00d4472",
    "name": "Siglufj\u00f6r\u00f0ur Airport",
    "city": "Siglufjordur",
    "country": "Iceland",
    "IATA": "SIJ",
    "ICAO": "BISI",
    "latitude": 66.133301,
    "longitude": -18.9167,
    "altitude": 10,
    "timezone": "0",
    "DST": "N",
    "tz_database": "Atlantic/Reykjavik",
    "type": "airport",
    "source": "OurAirports",
    "city_latitude": 66.133301,
    "city_longitude": -18.9167
  },
  {
    "_id": "665d9f450350b667a00d447c",
    "name": "Baker Lake Airport",
    "city": "Baker Lake",
    "country": "Canada",
    "IATA": "YBK",
    "ICAO": "CYBK",
    "latitude": 64.29889678960001,
    "longitude": -96.077796936,
    "altitude": 59,
    "timezone": "-6",
    "DST": "A",
    "tz_database": "America/Winnipeg",
    "type": "airport",
    "source": "OurAirports",
    "city_latitude": 64.29889678960001,
    "city_longitude": -96.077796936
  },
  {
    "_id": "665d9f450350b667a00d4482",
    "name": "Miramichi Airport",
    "city": "Chatham",
    "country": "Canada",
    "IATA": "YCH",
    "ICAO": "CYCH",
    "latitude": 47.007801,
    "longitude": -65.449203,
    "altitude": 108,
    "timezone": "-4",
    "DST": "A",
    "tz_database": "America/Halifax",
    "type": "airport",
    "source": "OurAirports",
    "city_latitude": 42.4229,
    "city_longitude": -82.1324
  },
  {
    "_id": "665d9f450350b667a00d4485",
    "name": "Coronation Airport",
    "city": "Coronation",
    "country": "Canada",
    "IATA": "YCT",
    "ICAO": "CYCT",
    "latitude": 52.0750007629,
    "longitude": -111.444999695,
    "altitude": 2595,
    "timezone": "-7",
    "DST": "A",
    "tz_database": "America/Edmonton",
    "type": "airport",
    "source": "OurAirports",
    "city_latitude": 52.0750007629,
    "city_longitude": -111.444999695
  },
  {
    "_id": "665d9f450350b667a00d4489",
    "name": "Dawson City Airport",
    "city": "Dawson",
    "country": "Canada",
    "IATA": "YDA",
    "ICAO": "CYDA",
    "latitude": 64.04309844970703,
    "longitude": -139.1280059814453,
    "altitude": 1215,
    "timezone": "-8",
    "DST": "A",
    "tz_database": "America/Vancouver",
    "type": "airport",
    "source": "OurAirports",
    "city_latitude": 64.04309844970703,
    "city_longitude": -139.1280059814453
  },
  {
    "_id": "665d9f450350b667a00d4493",
    "name": "Edson Airport",
    "city": "Edson",
    "country": "Canada",
    "IATA": "YET",
    "ICAO": "CYET",
    "latitude": 53.5788993835,
    "longitude": -116.464996338,
    "altitude": 3043,
    "timezone": "-7",
    "DST": "A",
    "tz_database": "America/Edmonton",
    "type": "airport",
    "source": "OurAirports",
    "city_latitude": 53.5788993835,
    "city_longitude": -116.464996338
  },
  {
    "_id": "665d9f450350b667a00d4494",
    "name": "Eureka Airport",
    "city": "Eureka",
    "country": "Canada",
    "IATA": "YEU",
    "ICAO": "CYEU",
    "latitude": 79.9946975708,
    "longitude": -85.814201355,
    "altitude": 256,
    "timezone": "-6",
    "DST": "A",
    "tz_database": "America/Winnipeg",
    "type": "airport",
    "source": "OurAirports",
    "city_latitude": 79.9946975708,
    "city_longitude": -85.814201355
  },
  {
    "_id": "665d9f450350b667a00d4495",
    "name": "Inuvik Mike Zubko Airport",
    "city": "Inuvik",
    "country": "Canada",
    "IATA": "YEV",
    "ICAO": "CYEV",
    "latitude": 68.30419921880001,
    "longitude": -133.483001709,
    "altitude": 224,
    "timezone": "-7",
    "DST": "A",
    "tz_database": "America/Edmonton",
    "type": "airport",
    "source": "OurAirports",
    "city_latitude": 68.30419921880001,
    "city_longitude": -133.483001709
  },
  {
    "_id": "665d9f450350b667a00d4497",
    "name": "Fredericton Airport",
    "city": "Fredericton",
    "country": "Canada",
    "IATA": "YFC",
    "ICAO": "CYFC",
    "latitude": 45.868900299072266,
    "longitude": -66.53720092773438,
    "altitude": 68,
    "timezone": "-4",
    "DST": "A",
    "tz_database": "America/Halifax",
    "type": "airport",
    "source": "OurAirports",
    "city_latitude": 45.9636,
    "city_longitude": -66.6431
  },
  {
    "_id": "665d9f450350b667a00d4499",
    "name": "Flin Flon Airport",
    "city": "Flin Flon",
    "country": "Canada",
    "IATA": "YFO",
    "ICAO": "CYFO",
    "latitude": 54.6781005859375,
    "longitude": -101.68199920654295,
    "altitude": 997,
    "timezone": "-6",
    "DST": "A",
    "tz_database": "America/Winnipeg",
    "type": "airport",
    "source": "OurAirports",
    "city_latitude": 54.6781005859375,
    "city_longitude": -101.68199920654295
  },
  {
    "_id": "665d9f450350b667a00d449c",
    "name": "Kingston Norman Rogers Airport",
    "city": "Kingston",
    "country": "Canada",
    "IATA": "YGK",
    "ICAO": "CYGK",
    "latitude": 44.22529983520508,
    "longitude": -76.5969009399414,
    "altitude": 305,
    "timezone": "-5",
    "DST": "A",
    "tz_database": "America/Toronto",
    "type": "airport",
    "source": "OurAirports",
    "city_latitude": 44.3128,
    "city_longitude": -76.4553
  },
  {
    "_id": "665d9f450350b667a00d449d",
    "name": "La Grande Rivi\u00e8re Airport",
    "city": "La Grande Riviere",
    "country": "Canada",
    "IATA": "YGL",
    "ICAO": "CYGL",
    "latitude": 53.625301361083984,
    "longitude": -77.7042007446289,
    "altitude": 639,
    "timezone": "-5",
    "DST": "A",
    "tz_database": "America/Toronto",
    "type": "airport",
    "source": "OurAirports",
    "city_latitude": 53.625301361083984,
    "city_longitude": -77.7042007446289
  },
  {
    "_id": "665d9f450350b667a00d4462",
    "name": "Mount Hagen Kagamuga Airport",
    "city": "Mount Hagen",
    "country": "Papua New Guinea",
    "IATA": "HGU",
    "ICAO": "AYMH",
    "latitude": -5.826789855957031,
    "longitude": 144.29600524902344,
    "altitude": 5388,
    "timezone": "10",
    "DST": "U",
    "tz_database": "Pacific/Port_Moresby",
    "type": "airport",
    "source": "OurAirports",
    "city_latitude": -5.86,
    "city_longitude": 144.24
  },
  {
    "_id": "665d9f450350b667a00d4463",
    "name": "Nadzab Airport",
    "city": "Nadzab",
    "country": "Papua New Guinea",
    "IATA": "LAE",
    "ICAO": "AYNZ",
    "latitude": -6.569803,
    "longitude": 146.725977,
    "altitude": 239,
    "timezone": "10",
    "DST": "U",
    "tz_database": "Pacific/Port_Moresby",
    "type": "airport",
    "source": "OurAirports",
    "city_latitude": -6.569803,
    "city_longitude": 146.725977
  },
  {
    "_id": "665d9f450350b667a00d4466",
    "name": "Narsarsuaq Airport",
    "city": "Narssarssuaq",
    "country": "Greenland",
    "IATA": "UAK",
    "ICAO": "BGBW",
    "latitude": 61.1604995728,
    "longitude": -45.4259986877,
    "altitude": 112,
    "timezone": "-3",
    "DST": "E",
    "tz_database": "America/Godthab",
    "type": "airport",
    "source": "OurAirports",
    "city_latitude": 61.1604995728,
    "city_longitude": -45.4259986877
  },
  {
    "_id": "665d9f450350b667a00d446d",
    "name": "H\u00fasav\u00edk Airport",
    "city": "Husavik",
    "country": "Iceland",
    "IATA": "HZK",
    "ICAO": "BIHU",
    "latitude": 65.952301,
    "longitude": -17.426001,
    "altitude": 48,
    "timezone": "0",
    "DST": "N",
    "tz_database": "Atlantic/Reykjavik",
    "type": "airport",
    "source": "OurAirports",
    "city_latitude": 65.952301,
    "city_longitude": -17.426001
  },
  {
    "_id": "665d9f450350b667a00d446f",
    "name": "Keflavik International Airport",
    "city": "Keflavik",
    "country": "Iceland",
    "IATA": "KEF",
    "ICAO": "BIKF",
    "latitude": 63.985000610352,
    "longitude": -22.605600357056,
    "altitude": 171,
    "timezone": "0",
    "DST": "N",
    "tz_database": "Atlantic/Reykjavik",
    "type": "airport",
    "source": "OurAirports",
    "city_latitude": 64.0167,
    "city_longitude": -22.5667
  },
  {
    "_id": "665d9f450350b667a00d4473",
    "name": "Vestmannaeyjar Airport",
    "city": "Vestmannaeyjar",
    "country": "Iceland",
    "IATA": "VEY",
    "ICAO": "BIVM",
    "latitude": 63.42430114746094,
    "longitude": -20.27890014648437,
    "altitude": 326,
    "timezone": "0",
    "DST": "N",
    "tz_database": "Atlantic/Reykjavik",
    "type": "airport",
    "source": "OurAirports",
    "city_latitude": 63.42430114746094,
    "city_longitude": -20.27890014648437
  },
  {
    "_id": "665d9f450350b667a00d4476",
    "name": "Halifax / CFB Shearwater Heliport",
    "city": "Halifax",
    "country": "Canada",
    "IATA": "\\N",
    "ICAO": "CYAW",
    "latitude": 44.639702,
    "longitude": -63.499401,
    "altitude": 144,
    "timezone": "-4",
    "DST": "A",
    "tz_database": "America/Halifax",
    "type": "airport",
    "source": "OurAirports",
    "city_latitude": 44.6475,
    "city_longitude": -63.5906
  },
  {
    "_id": "665d9f450350b667a00d447d",
    "name": "Campbell River Airport",
    "city": "Campbell River",
    "country": "Canada",
    "IATA": "YBL",
    "ICAO": "CYBL",
    "latitude": 49.950801849365234,
    "longitude": -125.27100372314452,
    "altitude": 346,
    "timezone": "-8",
    "DST": "A",
    "tz_database": "America/Vancouver",
    "type": "airport",
    "source": "OurAirports",
    "city_latitude": 50.0244,
    "city_longitude": -125.2475
  },
  {
    "_id": "665d9f450350b667a00d4486",
    "name": "Chilliwack Airport",
    "city": "Chilliwack",
    "country": "Canada",
    "IATA": "YCW",
    "ICAO": "CYCW",
    "latitude": 49.1528015137,
    "longitude": -121.939002991,
    "altitude": 32,
    "timezone": "-8",
    "DST": "A",
    "tz_database": "America/Vancouver",
    "type": "airport",
    "source": "OurAirports",
    "city_latitude": 49.1577,
    "city_longitude": -121.9509
  },
  {
    "_id": "665d9f450350b667a00d448d",
    "name": "Dease Lake Airport",
    "city": "Dease Lake",
    "country": "Canada",
    "IATA": "YDL",
    "ICAO": "CYDL",
    "latitude": 58.4221992493,
    "longitude": -130.031997681,
    "altitude": 2600,
    "timezone": "-8",
    "DST": "A",
    "tz_database": "America/Vancouver",
    "type": "airport",
    "source": "OurAirports",
    "city_latitude": 58.4221992493,
    "city_longitude": -130.031997681
  },
  {
    "_id": "665d9f450350b667a00d4491",
    "name": "Arviat Airport",
    "city": "Eskimo Point",
    "country": "Canada",
    "IATA": "YEK",
    "ICAO": "CYEK",
    "latitude": 61.0942001343,
    "longitude": -94.0708007812,
    "altitude": 32,
    "timezone": "-6",
    "DST": "A",
    "tz_database": "America/Winnipeg",
    "type": "airport",
    "source": "OurAirports",
    "city_latitude": 61.0942001343,
    "city_longitude": -94.0708007812
  },
  {
    "_id": "665d9f450350b667a00d4492",
    "name": "Estevan Airport",
    "city": "Estevan",
    "country": "Canada",
    "IATA": "YEN",
    "ICAO": "CYEN",
    "latitude": 49.2103004456,
    "longitude": -102.966003418,
    "altitude": 1905,
    "timezone": "-6",
    "DST": "N",
    "tz_database": "America/Regina",
    "type": "airport",
    "source": "OurAirports",
    "city_latitude": 49.1392,
    "city_longitude": -102.9861
  },
  {
    "_id": "665d9f450350b667a00d449a",
    "name": "Fort Resolution Airport",
    "city": "Fort Resolution",
    "country": "Canada",
    "IATA": "YFR",
    "ICAO": "CYFR",
    "latitude": 61.1808013916,
    "longitude": -113.690002441,
    "altitude": 526,
    "timezone": "-7",
    "DST": "A",
    "tz_database": "America/Edmonton",
    "type": "airport",
    "source": "OurAirports",
    "city_latitude": 61.1808013916,
    "city_longitude": -113.690002441
  },
  {
    "_id": "665d9f450350b667a00d449e",
    "name": "Gasp\u00e9 (Michel-Pouliot) Airport",
    "city": "Gaspe",
    "country": "Canada",
    "IATA": "YGP",
    "ICAO": "CYGP",
    "latitude": 48.7752990723,
    "longitude": -64.4785995483,
    "altitude": 112,
    "timezone": "-5",
    "DST": "A",
    "tz_database": "America/Toronto",
    "type": "airport",
    "source": "OurAirports",
    "city_latitude": 48.8333,
    "city_longitude": -64.4833
  },
  {
    "_id": "665d9f450350b667a00d4464",
    "name": "Port Moresby Jacksons International Airport",
    "city": "Port Moresby",
    "country": "Papua New Guinea",
    "IATA": "POM",
    "ICAO": "AYPY",
    "latitude": -9.44338035583496,
    "longitude": 147.22000122070312,
    "altitude": 146,
    "timezone": "10",
    "DST": "U",
    "tz_database": "Pacific/Port_Moresby",
    "type": "airport",
    "source": "OurAirports",
    "city_latitude": -9.4789,
    "city_longitude": 147.1494
  },
  {
    "_id": "665d9f450350b667a00d4465",
    "name": "Wewak International Airport",
    "city": "Wewak",
    "country": "Papua New Guinea",
    "IATA": "WWK",
    "ICAO": "AYWK",
    "latitude": -3.58383011818,
    "longitude": 143.669006348,
    "altitude": 19,
    "timezone": "10",
    "DST": "U",
    "tz_database": "Pacific/Port_Moresby",
    "type": "airport",
    "source": "OurAirports",
    "city_latitude": -3.55,
    "city_longitude": 143.6333
  },
  {
    "_id": "665d9f450350b667a00d4467",
    "name": "Godthaab / Nuuk Airport",
    "city": "Godthaab",
    "country": "Greenland",
    "IATA": "GOH",
    "ICAO": "BGGH",
    "latitude": 64.19090271,
    "longitude": -51.6781005859,
    "altitude": 283,
    "timezone": "-3",
    "DST": "E",
    "tz_database": "America/Godthab",
    "type": "airport",
    "source": "OurAirports",
    "city_latitude": 64.19090271,
    "city_longitude": -51.6781005859
  },
  {
    "_id": "665d9f450350b667a00d446c",
    "name": "Hornafj\u00f6r\u00f0ur Airport",
    "city": "Hofn",
    "country": "Iceland",
    "IATA": "HFN",
    "ICAO": "BIHN",
    "latitude": 64.295601,
    "longitude": -15.2272,
    "altitude": 24,
    "timezone": "0",
    "DST": "N",
    "tz_database": "Atlantic/Reykjavik",
    "type": "airport",
    "source": "OurAirports",
    "city_latitude": 64.254,
    "city_longitude": -15.212
  },
  {
    "_id": "665d9f450350b667a00d4474",
    "name": "Sault Ste Marie Airport",
    "city": "Sault Sainte Marie",
    "country": "Canada",
    "IATA": "YAM",
    "ICAO": "CYAM",
    "latitude": 46.48500061035156,
    "longitude": -84.5093994140625,
    "altitude": 630,
    "timezone": "-5",
    "DST": "A",
    "tz_database": "America/Toronto",
    "type": "airport",
    "source": "OurAirports",
    "city_latitude": 46.48500061035156,
    "city_longitude": -84.5093994140625
  },
  {
    "_id": "665d9f450350b667a00d4475",
    "name": "Winnipeg / St. Andrews Airport",
    "city": "Winnipeg",
    "country": "Canada",
    "IATA": "\\N",
    "ICAO": "CYAV",
    "latitude": 50.0564002991,
    "longitude": -97.0325012207,
    "altitude": 760,
    "timezone": "-6",
    "DST": "A",
    "tz_database": "America/Winnipeg",
    "type": "airport",
    "source": "OurAirports",
    "city_latitude": 49.8844,
    "city_longitude": -97.1464
  },
  {
    "_id": "665d9f450350b667a00d4479",
    "name": "Kugaaruk Airport",
    "city": "Pelly Bay",
    "country": "Canada",
    "IATA": "YBB",
    "ICAO": "CYBB",
    "latitude": 68.534401,
    "longitude": -89.808098,
    "altitude": 56,
    "timezone": "-7",
    "DST": "A",
    "tz_database": "America/Edmonton",
    "type": "airport",
    "source": "OurAirports",
    "city_latitude": 68.534401,
    "city_longitude": -89.808098
  },
  {
    "_id": "665d9f450350b667a00d447e",
    "name": "Brandon Municipal Airport",
    "city": "Brandon",
    "country": "Canada",
    "IATA": "YBR",
    "ICAO": "CYBR",
    "latitude": 49.91,
    "longitude": -99.951897,
    "altitude": 1343,
    "timezone": "-6",
    "DST": "A",
    "tz_database": "America/Winnipeg",
    "type": "airport",
    "source": "OurAirports",
    "city_latitude": 49.8483,
    "city_longitude": -99.95
  },
  {
    "_id": "665d9f450350b667a00d4480",
    "name": "Nanaimo Airport",
    "city": "Nanaimo",
    "country": "Canada",
    "IATA": "YCD",
    "ICAO": "CYCD",
    "latitude": 49.0549702249,
    "longitude": -123.869862556,
    "altitude": 92,
    "timezone": "-8",
    "DST": "A",
    "tz_database": "America/Vancouver",
    "type": "airport",
    "source": "OurAirports",
    "city_latitude": 49.1642,
    "city_longitude": -123.9364
  },
  {
    "_id": "665d9f450350b667a00d4481",
    "name": "Castlegar/West Kootenay Regional Airport",
    "city": "Castlegar",
    "country": "Canada",
    "IATA": "YCG",
    "ICAO": "CYCG",
    "latitude": 49.2963981628,
    "longitude": -117.632003784,
    "altitude": 1624,
    "timezone": "-8",
    "DST": "A",
    "tz_database": "America/Vancouver",
    "type": "airport",
    "source": "OurAirports",
    "city_latitude": 49.3256,
    "city_longitude": -117.6661
  },
  {
    "_id": "665d9f450350b667a00d4483",
    "name": "Charlo Airport",
    "city": "Charlo",
    "country": "Canada",
    "IATA": "YCL",
    "ICAO": "CYCL",
    "latitude": 47.990799,
    "longitude": -66.330299,
    "altitude": 132,
    "timezone": "-4",
    "DST": "A",
    "tz_database": "America/Halifax",
    "type": "airport",
    "source": "OurAirports",
    "city_latitude": 47.990799,
    "city_longitude": -66.330299
  },
  {
    "_id": "665d9f450350b667a00d4484",
    "name": "Kugluktuk Airport",
    "city": "Coppermine",
    "country": "Canada",
    "IATA": "YCO",
    "ICAO": "CYCO",
    "latitude": 67.816704,
    "longitude": -115.143997,
    "altitude": 74,
    "timezone": "-7",
    "DST": "A",
    "tz_database": "America/Edmonton",
    "type": "airport",
    "source": "OurAirports",
    "city_latitude": 67.816704,
    "city_longitude": -115.143997
  },
  {
    "_id": "665d9f450350b667a00d4487",
    "name": "Clyde River Airport",
    "city": "Clyde River",
    "country": "Canada",
    "IATA": "YCY",
    "ICAO": "CYCY",
    "latitude": 70.4860992432,
    "longitude": -68.5167007446,
    "altitude": 87,
    "timezone": "-5",
    "DST": "A",
    "tz_database": "America/Toronto",
    "type": "airport",
    "source": "OurAirports",
    "city_latitude": 70.4860992432,
    "city_longitude": -68.5167007446
  },
  {
    "_id": "665d9f450350b667a00d448a",
    "name": "Burwash Airport",
    "city": "Burwash",
    "country": "Canada",
    "IATA": "YDB",
    "ICAO": "CYDB",
    "latitude": 61.37110137939453,
    "longitude": -139.04100036621094,
    "altitude": 2647,
    "timezone": "-8",
    "DST": "A",
    "tz_database": "America/Vancouver",
    "type": "airport",
    "source": "OurAirports",
    "city_latitude": 61.37110137939453,
    "city_longitude": -139.04100036621094
  },
  {
    "_id": "665d9f450350b667a00d448c",
    "name": "Deer Lake Airport",
    "city": "Deer Lake",
    "country": "Canada",
    "IATA": "YDF",
    "ICAO": "CYDF",
    "latitude": 49.21080017089844,
    "longitude": -57.39139938354492,
    "altitude": 72,
    "timezone": "-3.5",
    "DST": "A",
    "tz_database": "America/St_Johns",
    "type": "airport",
    "source": "OurAirports",
    "city_latitude": 49.21080017089844,
    "city_longitude": -57.39139938354492
  },
  {
    "_id": "665d9f450350b667a00d4490",
    "name": "Edmonton International Airport",
    "city": "Edmonton",
    "country": "Canada",
    "IATA": "YEG",
    "ICAO": "CYEG",
    "latitude": 53.3097000122,
    "longitude": -113.580001831,
    "altitude": 2373,
    "timezone": "-7",
    "DST": "A",
    "tz_database": "America/Edmonton",
    "type": "airport",
    "source": "OurAirports",
    "city_latitude": 53.5344,
    "city_longitude": -113.4903
  },
  {
    "_id": "665d9f450350b667a00d449b",
    "name": "Fort Simpson Airport",
    "city": "Fort Simpson",
    "country": "Canada",
    "IATA": "YFS",
    "ICAO": "CYFS",
    "latitude": 61.76020050048828,
    "longitude": -121.23699951171876,
    "altitude": 555,
    "timezone": "-7",
    "DST": "A",
    "tz_database": "America/Edmonton",
    "type": "airport",
    "source": "OurAirports",
    "city_latitude": 61.76020050048828,
    "city_longitude": -121.23699951171876
  },
  {
    "_id": "665d9f450350b667a00d449f",
    "name": "Geraldton Greenstone Regional Airport",
    "city": "Geraldton",
    "country": "Canada",
    "IATA": "YGQ",
    "ICAO": "CYGQ",
    "latitude": 49.77830123901367,
    "longitude": -86.93939971923828,
    "altitude": 1144,
    "timezone": "-5",
    "DST": "A",
    "tz_database": "America/Toronto",
    "type": "airport",
    "source": "OurAirports",
    "city_latitude": 49.77830123901367,
    "city_longitude": -86.93939971923828
  },
  {
    "_id": "665d9f450350b667a00d44a6",
    "name": "Montr\u00e9al / Saint-Hubert Airport",
    "city": "Montreal",
    "country": "Canada",
    "IATA": "YHU",
    "ICAO": "CYHU",
    "latitude": 45.5175018311,
    "longitude": -73.4169006348,
    "altitude": 90,
    "timezone": "-5",
    "DST": "A",
    "tz_database": "America/Toronto",
    "type": "airport",
    "source": "OurAirports",
    "city_latitude": 45.5089,
    "city_longitude": -73.5617
  },
  {
    "_id": "665d9f450350b667a00d44a8",
    "name": "Halifax / Stanfield International Airport",
    "city": "Halifax",
    "country": "Canada",
    "IATA": "YHZ",
    "ICAO": "CYHZ",
    "latitude": 44.8807983398,
    "longitude": -63.5085983276,
    "altitude": 477,
    "timezone": "-4",
    "DST": "A",
    "tz_database": "America/Halifax",
    "type": "airport",
    "source": "OurAirports",
    "city_latitude": 44.6475,
    "city_longitude": -63.5906
  },
  {
    "_id": "665d9f450350b667a00d44ab",
    "name": "St Jean Airport",
    "city": "St. Jean",
    "country": "Canada",
    "IATA": "YJN",
    "ICAO": "CYJN",
    "latitude": 45.29439926147461,
    "longitude": -73.28109741210938,
    "altitude": 136,
    "timezone": "-5",
    "DST": "A",
    "tz_database": "America/Toronto",
    "type": "airport",
    "source": "OurAirports",
    "city_latitude": 45.29439926147461,
    "city_longitude": -73.28109741210938
  },
  {
    "_id": "665d9f450350b667a00d44b1",
    "name": "Buttonville Municipal Airport",
    "city": "Toronto",
    "country": "Canada",
    "IATA": "YKZ",
    "ICAO": "CYKZ",
    "latitude": 43.86220169067383,
    "longitude": -79.37000274658203,
    "altitude": 650,
    "timezone": "-5",
    "DST": "A",
    "tz_database": "America/Toronto",
    "type": "airport",
    "source": "OurAirports",
    "city_latitude": 43.7417,
    "city_longitude": -79.3733
  },
  {
    "_id": "665d9f450350b667a00d44b2",
    "name": "Chapleau Airport",
    "city": "Chapleau",
    "country": "Canada",
    "IATA": "YLD",
    "ICAO": "CYLD",
    "latitude": 47.81999969482422,
    "longitude": -83.3467025756836,
    "altitude": 1470,
    "timezone": "-5",
    "DST": "A",
    "tz_database": "America/Toronto",
    "type": "airport",
    "source": "OurAirports",
    "city_latitude": 47.81999969482422,
    "city_longitude": -83.3467025756836
  },
  {
    "_id": "665d9f450350b667a00d44b3",
    "name": "Meadow Lake Airport",
    "city": "Meadow Lake",
    "country": "Canada",
    "IATA": "YLJ",
    "ICAO": "CYLJ",
    "latitude": 54.125301361083984,
    "longitude": -108.52300262451172,
    "altitude": 1576,
    "timezone": "-6",
    "DST": "N",
    "tz_database": "America/Regina",
    "type": "airport",
    "source": "OurAirports",
    "city_latitude": 54.125301361083984,
    "city_longitude": -108.52300262451172
  },
  {
    "_id": "665d9f450350b667a00d44b5",
    "name": "Alert Airport",
    "city": "Alert",
    "country": "Canada",
    "IATA": "YLT",
    "ICAO": "CYLT",
    "latitude": 82.51779937740001,
    "longitude": -62.2806015015,
    "altitude": 100,
    "timezone": "-5",
    "DST": "A",
    "tz_database": "America/Toronto",
    "type": "airport",
    "source": "OurAirports",
    "city_latitude": 82.51779937740001,
    "city_longitude": -62.2806015015
  },
  {
    "_id": "665d9f450350b667a00d44bd",
    "name": "Natashquan Airport",
    "city": "Natashquan",
    "country": "Canada",
    "IATA": "YNA",
    "ICAO": "CYNA",
    "latitude": 50.18999862670898,
    "longitude": -61.78919982910156,
    "altitude": 39,
    "timezone": "-5",
    "DST": "A",
    "tz_database": "America/Toronto",
    "type": "airport",
    "source": "OurAirports",
    "city_latitude": 50.18999862670898,
    "city_longitude": -61.78919982910156
  },
  {
    "_id": "665d9f450350b667a00d44be",
    "name": "Ottawa / Gatineau Airport",
    "city": "Gatineau",
    "country": "Canada",
    "IATA": "YND",
    "ICAO": "CYND",
    "latitude": 45.5217018127,
    "longitude": -75.5635986328,
    "altitude": 211,
    "timezone": "-5",
    "DST": "A",
    "tz_database": "America/Toronto",
    "type": "airport",
    "source": "OurAirports",
    "city_latitude": 45.4833,
    "city_longitude": -75.65
  },
  {
    "_id": "665d9f450350b667a00d44c1",
    "name": "CFB Cold Lake",
    "city": "Cold Lake",
    "country": "Canada",
    "IATA": "YOD",
    "ICAO": "CYOD",
    "latitude": 54.40499877929688,
    "longitude": -110.27899932861328,
    "altitude": 1775,
    "timezone": "-7",
    "DST": "A",
    "tz_database": "America/Edmonton",
    "type": "airport",
    "source": "OurAirports",
    "city_latitude": 54.4642,
    "city_longitude": -110.1825
  },
  {
    "_id": "665d9f450350b667a00d44c8",
    "name": "Pickle Lake Airport",
    "city": "Pickle Lake",
    "country": "Canada",
    "IATA": "YPL",
    "ICAO": "CYPL",
    "latitude": 51.4463996887207,
    "longitude": -90.21420288085938,
    "altitude": 1267,
    "timezone": "-5",
    "DST": "A",
    "tz_database": "America/Coral_Harbour",
    "type": "airport",
    "source": "OurAirports",
    "city_latitude": 51.4463996887207,
    "city_longitude": -90.21420288085938
  },
  {
    "_id": "665d9f450350b667a00d44ca",
    "name": "Peterborough Airport",
    "city": "Peterborough",
    "country": "Canada",
    "IATA": "YPQ",
    "ICAO": "CYPQ",
    "latitude": 44.22999954223633,
    "longitude": -78.36329650878906,
    "altitude": 628,
    "timezone": "-5",
    "DST": "A",
    "tz_database": "America/Toronto",
    "type": "airport",
    "source": "OurAirports",
    "city_latitude": 44.3,
    "city_longitude": -78.3167
  },
  {
    "_id": "665d9f450350b667a00d44cb",
    "name": "Prince Rupert Airport",
    "city": "Prince Pupert",
    "country": "Canada",
    "IATA": "YPR",
    "ICAO": "CYPR",
    "latitude": 54.2860984802,
    "longitude": -130.445007324,
    "altitude": 116,
    "timezone": "-8",
    "DST": "A",
    "tz_database": "America/Vancouver",
    "type": "airport",
    "source": "OurAirports",
    "city_latitude": 54.2860984802,
    "city_longitude": -130.445007324
  },
  {
    "_id": "665d9f450350b667a00d44ce",
    "name": "Quebec Jean Lesage International Airport",
    "city": "Quebec",
    "country": "Canada",
    "IATA": "YQB",
    "ICAO": "CYQB",
    "latitude": 46.7911,
    "longitude": -71.393303,
    "altitude": 244,
    "timezone": "-5",
    "DST": "A",
    "tz_database": "America/Toronto",
    "type": "airport",
    "source": "OurAirports",
    "city_latitude": 46.7911,
    "city_longitude": -71.393303
  },
  {
    "_id": "665d9f450350b667a00d44cf",
    "name": "Red Deer Regional Airport",
    "city": "Red Deer Industrial",
    "country": "Canada",
    "IATA": "YQF",
    "ICAO": "CYQF",
    "latitude": 52.18220138549805,
    "longitude": -113.8939971923828,
    "altitude": 2968,
    "timezone": "-7",
    "DST": "A",
    "tz_database": "America/Edmonton",
    "type": "airport",
    "source": "OurAirports",
    "city_latitude": 52.18220138549805,
    "city_longitude": -113.8939971923828
  },
  {
    "_id": "665d9f450350b667a00d44d7",
    "name": "Thunder Bay Airport",
    "city": "Thunder Bay",
    "country": "Canada",
    "IATA": "YQT",
    "ICAO": "CYQT",
    "latitude": 48.37189865112305,
    "longitude": -89.32389831542969,
    "altitude": 653,
    "timezone": "-5",
    "DST": "A",
    "tz_database": "America/Toronto",
    "type": "airport",
    "source": "OurAirports",
    "city_latitude": 48.3822,
    "city_longitude": -89.2461
  },
  {
    "_id": "665d9f450350b667a00d44a0",
    "name": "\u00celes-de-la-Madeleine Airport",
    "city": "Iles De La Madeleine",
    "country": "Canada",
    "IATA": "YGR",
    "ICAO": "CYGR",
    "latitude": 47.42470169067383,
    "longitude": -61.778099060058594,
    "altitude": 35,
    "timezone": "-5",
    "DST": "A",
    "tz_database": "America/Toronto",
    "type": "airport",
    "source": "OurAirports",
    "city_latitude": 47.42470169067383,
    "city_longitude": -61.778099060058594
  },
  {
    "_id": "665d9f450350b667a00d44a2",
    "name": "Dryden Regional Airport",
    "city": "Dryden",
    "country": "Canada",
    "IATA": "YHD",
    "ICAO": "CYHD",
    "latitude": 49.831699,
    "longitude": -92.744202,
    "altitude": 1354,
    "timezone": "-6",
    "DST": "A",
    "tz_database": "America/Winnipeg",
    "type": "airport",
    "source": "OurAirports",
    "city_latitude": 49.831699,
    "city_longitude": -92.744202
  },
  {
    "_id": "665d9f450350b667a00d44a7",
    "name": "Hay River / Merlyn Carter Airport",
    "city": "Hay River",
    "country": "Canada",
    "IATA": "YHY",
    "ICAO": "CYHY",
    "latitude": 60.8396987915,
    "longitude": -115.782997131,
    "altitude": 541,
    "timezone": "-7",
    "DST": "A",
    "tz_database": "America/Edmonton",
    "type": "airport",
    "source": "OurAirports",
    "city_latitude": 60.8396987915,
    "city_longitude": -115.782997131
  },
  {
    "_id": "665d9f450350b667a00d44aa",
    "name": "Pond Inlet Airport",
    "city": "Pond Inlet",
    "country": "Canada",
    "IATA": "YIO",
    "ICAO": "CYIO",
    "latitude": 72.6832962036,
    "longitude": -77.9666976929,
    "altitude": 181,
    "timezone": "-5",
    "DST": "A",
    "tz_database": "America/Toronto",
    "type": "airport",
    "source": "OurAirports",
    "city_latitude": 72.6832962036,
    "city_longitude": -77.9666976929
  },
  {
    "_id": "665d9f450350b667a00d44b0",
    "name": "Kindersley Airport",
    "city": "Kindersley",
    "country": "Canada",
    "IATA": "YKY",
    "ICAO": "CYKY",
    "latitude": 51.5175018311,
    "longitude": -109.180999756,
    "altitude": 2277,
    "timezone": "-6",
    "DST": "N",
    "tz_database": "America/Regina",
    "type": "airport",
    "source": "OurAirports",
    "city_latitude": 51.5175018311,
    "city_longitude": -109.180999756
  },
  {
    "_id": "665d9f450350b667a00d44b8",
    "name": "Moose Jaw Air Vice Marshal C. M. McEwen Airport",
    "city": "Moose Jaw",
    "country": "Canada",
    "IATA": "YMJ",
    "ICAO": "CYMJ",
    "latitude": 50.330299377441406,
    "longitude": -105.55899810791016,
    "altitude": 1892,
    "timezone": "-6",
    "DST": "N",
    "tz_database": "America/Regina",
    "type": "airport",
    "source": "OurAirports",
    "city_latitude": 50.3933,
    "city_longitude": -105.5519
  },
  {
    "_id": "665d9f450350b667a00d44b9",
    "name": "Fort McMurray Airport",
    "city": "Fort Mcmurray",
    "country": "Canada",
    "IATA": "YMM",
    "ICAO": "CYMM",
    "latitude": 56.653301239,
    "longitude": -111.222000122,
    "altitude": 1211,
    "timezone": "-7",
    "DST": "A",
    "tz_database": "America/Edmonton",
    "type": "airport",
    "source": "OurAirports",
    "city_latitude": 56.653301239,
    "city_longitude": -111.222000122
  },
  {
    "_id": "665d9f450350b667a00d44ba",
    "name": "Moosonee Airport",
    "city": "Moosonee",
    "country": "Canada",
    "IATA": "YMO",
    "ICAO": "CYMO",
    "latitude": 51.29109954833984,
    "longitude": -80.60780334472656,
    "altitude": 30,
    "timezone": "-5",
    "DST": "A",
    "tz_database": "America/Toronto",
    "type": "airport",
    "source": "OurAirports",
    "city_latitude": 51.29109954833984,
    "city_longitude": -80.60780334472656
  },
  {
    "_id": "665d9f450350b667a00d44bb",
    "name": "Maniwaki Airport",
    "city": "Maniwaki",
    "country": "Canada",
    "IATA": "YMW",
    "ICAO": "CYMW",
    "latitude": 46.2728004456,
    "longitude": -75.9906005859,
    "altitude": 656,
    "timezone": "-5",
    "DST": "A",
    "tz_database": "America/Toronto",
    "type": "airport",
    "source": "OurAirports",
    "city_latitude": 46.2728004456,
    "city_longitude": -75.9906005859
  },
  {
    "_id": "665d9f450350b667a00d44bf",
    "name": "Matagami Airport",
    "city": "Matagami",
    "country": "Canada",
    "IATA": "YNM",
    "ICAO": "CYNM",
    "latitude": 49.76169967651367,
    "longitude": -77.80280303955078,
    "altitude": 918,
    "timezone": "-5",
    "DST": "A",
    "tz_database": "America/Toronto",
    "type": "airport",
    "source": "OurAirports",
    "city_latitude": 49.76169967651367,
    "city_longitude": -77.80280303955078
  },
  {
    "_id": "665d9f450350b667a00d44c0",
    "name": "Old Crow Airport",
    "city": "Old Crow",
    "country": "Canada",
    "IATA": "YOC",
    "ICAO": "CYOC",
    "latitude": 67.57060241699219,
    "longitude": -139.83900451660156,
    "altitude": 824,
    "timezone": "-8",
    "DST": "A",
    "tz_database": "America/Vancouver",
    "type": "airport",
    "source": "OurAirports",
    "city_latitude": 67.57060241699219,
    "city_longitude": -139.83900451660156
  },
  {
    "_id": "665d9f450350b667a00d44c4",
    "name": "Prince Albert Glass Field",
    "city": "Prince Albert",
    "country": "Canada",
    "IATA": "YPA",
    "ICAO": "CYPA",
    "latitude": 53.2141990662,
    "longitude": -105.672996521,
    "altitude": 1405,
    "timezone": "-6",
    "DST": "N",
    "tz_database": "America/Regina",
    "type": "airport",
    "source": "OurAirports",
    "city_latitude": 53.2,
    "city_longitude": -105.75
  },
  {
    "_id": "665d9f450350b667a00d44c7",
    "name": "Pitt Meadows Airport",
    "city": "Pitt Meadows",
    "country": "Canada",
    "IATA": "\\N",
    "ICAO": "CYPK",
    "latitude": 49.21609878540039,
    "longitude": -122.70999908447266,
    "altitude": 11,
    "timezone": "-8",
    "DST": "A",
    "tz_database": "America/Vancouver",
    "type": "airport",
    "source": "OurAirports",
    "city_latitude": 49.2333,
    "city_longitude": -122.6833
  },
  {
    "_id": "665d9f450350b667a00d44c9",
    "name": "Port Menier Airport",
    "city": "Port Menier",
    "country": "Canada",
    "IATA": "YPN",
    "ICAO": "CYPN",
    "latitude": 49.83639907836914,
    "longitude": -64.2885971069336,
    "altitude": 167,
    "timezone": "-5",
    "DST": "A",
    "tz_database": "America/Toronto",
    "type": "airport",
    "source": "OurAirports",
    "city_latitude": 49.83639907836914,
    "city_longitude": -64.2885971069336
  },
  {
    "_id": "665d9f450350b667a00d44d0",
    "name": "Windsor Airport",
    "city": "Windsor",
    "country": "Canada",
    "IATA": "YQG",
    "ICAO": "CYQG",
    "latitude": 42.27560043334961,
    "longitude": -82.95559692382812,
    "altitude": 622,
    "timezone": "-5",
    "DST": "A",
    "tz_database": "America/Toronto",
    "type": "airport",
    "source": "OurAirports",
    "city_latitude": 42.2833,
    "city_longitude": -83.0
  },
  {
    "_id": "665d9f450350b667a00d44d1",
    "name": "Watson Lake Airport",
    "city": "Watson Lake",
    "country": "Canada",
    "IATA": "YQH",
    "ICAO": "CYQH",
    "latitude": 60.11640167236328,
    "longitude": -128.82200622558594,
    "altitude": 2255,
    "timezone": "-8",
    "DST": "A",
    "tz_database": "America/Vancouver",
    "type": "airport",
    "source": "OurAirports",
    "city_latitude": 60.11640167236328,
    "city_longitude": -128.82200622558594
  },
  {
    "_id": "665d9f450350b667a00d44d4",
    "name": "Greater Moncton International Airport",
    "city": "Moncton",
    "country": "Canada",
    "IATA": "YQM",
    "ICAO": "CYQM",
    "latitude": 46.11220169067383,
    "longitude": -64.67859649658203,
    "altitude": 232,
    "timezone": "-4",
    "DST": "A",
    "tz_database": "America/Halifax",
    "type": "airport",
    "source": "OurAirports",
    "city_latitude": 46.1328,
    "city_longitude": -64.7714
  },
  {
    "_id": "665d9f450350b667a00d44da",
    "name": "North Battleford Airport",
    "city": "North Battleford",
    "country": "Canada",
    "IATA": "YQW",
    "ICAO": "CYQW",
    "latitude": 52.76919937133789,
    "longitude": -108.24400329589844,
    "altitude": 1799,
    "timezone": "-6",
    "DST": "N",
    "tz_database": "America/Regina",
    "type": "airport",
    "source": "OurAirports",
    "city_latitude": 52.7575,
    "city_longitude": -108.2861
  },
  {
    "_id": "665d9f450350b667a00d44db",
    "name": "Gander International Airport",
    "city": "Gander",
    "country": "Canada",
    "IATA": "YQX",
    "ICAO": "CYQX",
    "latitude": 48.9369010925293,
    "longitude": -54.56809997558594,
    "altitude": 496,
    "timezone": "-3.5",
    "DST": "A",
    "tz_database": "America/St_Johns",
    "type": "airport",
    "source": "OurAirports",
    "city_latitude": 48.9569,
    "city_longitude": -54.6089
  },
  {
    "_id": "665d9f450350b667a00d44a1",
    "name": "Hudson Bay Airport",
    "city": "Hudson Bay",
    "country": "Canada",
    "IATA": "YHB",
    "ICAO": "CYHB",
    "latitude": 52.8166999817,
    "longitude": -102.310997009,
    "altitude": 1175,
    "timezone": "-6",
    "DST": "N",
    "tz_database": "America/Regina",
    "type": "airport",
    "source": "OurAirports",
    "city_latitude": 52.8166999817,
    "city_longitude": -102.310997009
  },
  {
    "_id": "665d9f450350b667a00d44a5",
    "name": "John C. Munro Hamilton International Airport",
    "city": "Hamilton",
    "country": "Canada",
    "IATA": "YHM",
    "ICAO": "CYHM",
    "latitude": 43.1735992432,
    "longitude": -79.93499755859999,
    "altitude": 780,
    "timezone": "-5",
    "DST": "A",
    "tz_database": "America/Toronto",
    "type": "airport",
    "source": "OurAirports",
    "city_latitude": 43.2567,
    "city_longitude": -79.8692
  },
  {
    "_id": "665d9f450350b667a00d44a9",
    "name": "Atikokan Municipal Airport",
    "city": "Atikokan",
    "country": "Canada",
    "IATA": "YIB",
    "ICAO": "CYIB",
    "latitude": 48.7738990784,
    "longitude": -91.6386032104,
    "altitude": 1408,
    "timezone": "-5",
    "DST": "A",
    "tz_database": "America/Coral_Harbour",
    "type": "airport",
    "source": "OurAirports",
    "city_latitude": 48.7738990784,
    "city_longitude": -91.6386032104
  },
  {
    "_id": "665d9f450350b667a00d44af",
    "name": "Schefferville Airport",
    "city": "Schefferville",
    "country": "Canada",
    "IATA": "YKL",
    "ICAO": "CYKL",
    "latitude": 54.805301666259766,
    "longitude": -66.8052978515625,
    "altitude": 1709,
    "timezone": "-5",
    "DST": "A",
    "tz_database": "America/Toronto",
    "type": "airport",
    "source": "OurAirports",
    "city_latitude": 54.805301666259766,
    "city_longitude": -66.8052978515625
  },
  {
    "_id": "665d9f450350b667a00d44b4",
    "name": "Lloydminster Airport",
    "city": "Lloydminster",
    "country": "Canada",
    "IATA": "YLL",
    "ICAO": "CYLL",
    "latitude": 53.309200286865234,
    "longitude": -110.072998046875,
    "altitude": 2193,
    "timezone": "-7",
    "DST": "A",
    "tz_database": "America/Edmonton",
    "type": "airport",
    "source": "OurAirports",
    "city_latitude": 53.2783,
    "city_longitude": -110.005
  },
  {
    "_id": "665d9f450350b667a00d44b7",
    "name": "Mayo Airport",
    "city": "Mayo",
    "country": "Canada",
    "IATA": "YMA",
    "ICAO": "CYMA",
    "latitude": 63.61640167236328,
    "longitude": -135.8679962158203,
    "altitude": 1653,
    "timezone": "-8",
    "DST": "A",
    "tz_database": "America/Vancouver",
    "type": "airport",
    "source": "OurAirports",
    "city_latitude": 63.61640167236328,
    "city_longitude": -135.8679962158203
  },
  {
    "_id": "665d9f450350b667a00d44bc",
    "name": "Montreal International (Mirabel) Airport",
    "city": "Montreal",
    "country": "Canada",
    "IATA": "YMX",
    "ICAO": "CYMX",
    "latitude": 45.679501,
    "longitude": -74.038696,
    "altitude": 270,
    "timezone": "-5",
    "DST": "A",
    "tz_database": "America/Toronto",
    "type": "airport",
    "source": "OurAirports",
    "city_latitude": 45.5089,
    "city_longitude": -73.5617
  },
  {
    "_id": "665d9f450350b667a00d44c3",
    "name": "Ottawa Macdonald-Cartier International Airport",
    "city": "Ottawa",
    "country": "Canada",
    "IATA": "YOW",
    "ICAO": "CYOW",
    "latitude": 45.3224983215332,
    "longitude": -75.66919708251953,
    "altitude": 374,
    "timezone": "-5",
    "DST": "A",
    "tz_database": "America/Toronto",
    "type": "airport",
    "source": "OurAirports",
    "city_latitude": 45.4247,
    "city_longitude": -75.695
  },
  {
    "_id": "665d9f450350b667a00d44c5",
    "name": "Peace River Airport",
    "city": "Peace River",
    "country": "Canada",
    "IATA": "YPE",
    "ICAO": "CYPE",
    "latitude": 56.226898,
    "longitude": -117.446999,
    "altitude": 1873,
    "timezone": "-7",
    "DST": "A",
    "tz_database": "America/Edmonton",
    "type": "airport",
    "source": "OurAirports",
    "city_latitude": 56.226898,
    "city_longitude": -117.446999
  },
  {
    "_id": "665d9f450350b667a00d44c6",
    "name": "Southport Airport",
    "city": "Portage-la-prairie",
    "country": "Canada",
    "IATA": "YPG",
    "ICAO": "CYPG",
    "latitude": 49.903099,
    "longitude": -98.273817,
    "altitude": 885,
    "timezone": "-6",
    "DST": "A",
    "tz_database": "America/Winnipeg",
    "type": "airport",
    "source": "OurAirports",
    "city_latitude": 49.903099,
    "city_longitude": -98.273817
  },
  {
    "_id": "665d9f450350b667a00d44d2",
    "name": "Kenora Airport",
    "city": "Kenora",
    "country": "Canada",
    "IATA": "YQK",
    "ICAO": "CYQK",
    "latitude": 49.78829956054688,
    "longitude": -94.36309814453124,
    "altitude": 1332,
    "timezone": "-6",
    "DST": "A",
    "tz_database": "America/Winnipeg",
    "type": "airport",
    "source": "OurAirports",
    "city_latitude": 49.7667,
    "city_longitude": -94.4833
  },
  {
    "_id": "665d9f450350b667a00d44d3",
    "name": "Lethbridge County Airport",
    "city": "Lethbridge",
    "country": "Canada",
    "IATA": "YQL",
    "ICAO": "CYQL",
    "latitude": 49.6302986145,
    "longitude": -112.800003052,
    "altitude": 3048,
    "timezone": "-7",
    "DST": "A",
    "tz_database": "America/Edmonton",
    "type": "airport",
    "source": "OurAirports",
    "city_latitude": 49.6942,
    "city_longitude": -112.8328
  },
  {
    "_id": "665d9f450350b667a00d44d6",
    "name": "Regina International Airport",
    "city": "Regina",
    "country": "Canada",
    "IATA": "YQR",
    "ICAO": "CYQR",
    "latitude": 50.43190002441406,
    "longitude": -104.66600036621094,
    "altitude": 1894,
    "timezone": "-6",
    "DST": "N",
    "tz_database": "America/Regina",
    "type": "airport",
    "source": "OurAirports",
    "city_latitude": 50.4547,
    "city_longitude": -104.6067
  },
  {
    "_id": "665d9f450350b667a00d44d8",
    "name": "Grande Prairie Airport",
    "city": "Grande Prairie",
    "country": "Canada",
    "IATA": "YQU",
    "ICAO": "CYQU",
    "latitude": 55.1796989441,
    "longitude": -118.885002136,
    "altitude": 2195,
    "timezone": "-7",
    "DST": "A",
    "tz_database": "America/Edmonton",
    "type": "airport",
    "source": "OurAirports",
    "city_latitude": 55.1708,
    "city_longitude": -118.7947
  },
  {
    "_id": "665d9f450350b667a00d44dc",
    "name": "Sydney / J.A. Douglas McCurdy Airport",
    "city": "Sydney",
    "country": "Canada",
    "IATA": "YQY",
    "ICAO": "CYQY",
    "latitude": 46.1614,
    "longitude": -60.047798,
    "altitude": 203,
    "timezone": "-4",
    "DST": "A",
    "tz_database": "America/Halifax",
    "type": "airport",
    "source": "OurAirports",
    "city_latitude": 46.1614,
    "city_longitude": -60.047798
  },
  {
    "_id": "665d9f450350b667a00d44df",
    "name": "Rivi\u00e8re-du-Loup Airport",
    "city": "Riviere Du Loup",
    "country": "Canada",
    "IATA": "YRI",
    "ICAO": "CYRI",
    "latitude": 47.76440048217773,
    "longitude": -69.58470153808594,
    "altitude": 427,
    "timezone": "-5",
    "DST": "A",
    "tz_database": "America/Toronto",
    "type": "airport",
    "source": "OurAirports",
    "city_latitude": 47.76440048217773,
    "city_longitude": -69.58470153808594
  },
  {
    "_id": "665d9f450350b667a00d44a3",
    "name": "Ulukhaktok Holman Airport",
    "city": "Holman Island",
    "country": "Canada",
    "IATA": "YHI",
    "ICAO": "CYHI",
    "latitude": 70.76280212402344,
    "longitude": -117.80599975585938,
    "altitude": 117,
    "timezone": "-7",
    "DST": "A",
    "tz_database": "America/Edmonton",
    "type": "airport",
    "source": "OurAirports",
    "city_latitude": 70.76280212402344,
    "city_longitude": -117.80599975585938
  },
  {
    "_id": "665d9f450350b667a00d44a4",
    "name": "Gjoa Haven Airport",
    "city": "Gjoa Haven",
    "country": "Canada",
    "IATA": "YHK",
    "ICAO": "CYHK",
    "latitude": 68.635597229,
    "longitude": -95.8497009277,
    "altitude": 152,
    "timezone": "-7",
    "DST": "A",
    "tz_database": "America/Edmonton",
    "type": "airport",
    "source": "OurAirports",
    "city_latitude": 68.635597229,
    "city_longitude": -95.8497009277
  },
  {
    "_id": "665d9f450350b667a00d44ac",
    "name": "Stephenville Airport",
    "city": "Stephenville",
    "country": "Canada",
    "IATA": "YJT",
    "ICAO": "CYJT",
    "latitude": 48.5442008972168,
    "longitude": -58.54999923706055,
    "altitude": 84,
    "timezone": "-3.5",
    "DST": "A",
    "tz_database": "America/St_Johns",
    "type": "airport",
    "source": "OurAirports",
    "city_latitude": 48.5442008972168,
    "city_longitude": -58.54999923706055
  },
  {
    "_id": "665d9f450350b667a00d44ad",
    "name": "Kamloops Airport",
    "city": "Kamloops",
    "country": "Canada",
    "IATA": "YKA",
    "ICAO": "CYKA",
    "latitude": 50.7022018433,
    "longitude": -120.444000244,
    "altitude": 1133,
    "timezone": "-8",
    "DST": "A",
    "tz_database": "America/Vancouver",
    "type": "airport",
    "source": "OurAirports",
    "city_latitude": 50.6761,
    "city_longitude": -120.3408
  },
  {
    "_id": "665d9f450350b667a00d44ae",
    "name": "Waterloo Airport",
    "city": "Waterloo",
    "country": "Canada",
    "IATA": "YKF",
    "ICAO": "CYKF",
    "latitude": 43.4608001709,
    "longitude": -80.3786010742,
    "altitude": 1055,
    "timezone": "-5",
    "DST": "A",
    "tz_database": "America/Toronto",
    "type": "airport",
    "source": "OurAirports",
    "city_latitude": 43.4667,
    "city_longitude": -80.5167
  },
  {
    "_id": "665d9f450350b667a00d44b6",
    "name": "Kelowna International Airport",
    "city": "Kelowna",
    "country": "Canada",
    "IATA": "YLW",
    "ICAO": "CYLW",
    "latitude": 49.9561004639,
    "longitude": -119.377998352,
    "altitude": 1421,
    "timezone": "-8",
    "DST": "A",
    "tz_database": "America/Vancouver",
    "type": "airport",
    "source": "OurAirports",
    "city_latitude": 49.8881,
    "city_longitude": -119.4956
  },
  {
    "_id": "665d9f450350b667a00d44c2",
    "name": "High Level Airport",
    "city": "High Level",
    "country": "Canada",
    "IATA": "YOJ",
    "ICAO": "CYOJ",
    "latitude": 58.62139892578125,
    "longitude": -117.16500091552734,
    "altitude": 1110,
    "timezone": "-7",
    "DST": "A",
    "tz_database": "America/Edmonton",
    "type": "airport",
    "source": "OurAirports",
    "city_latitude": 58.62139892578125,
    "city_longitude": -117.16500091552734
  },
  {
    "_id": "665d9f450350b667a00d44cc",
    "name": "Fort Chipewyan Airport",
    "city": "Fort Chipewyan",
    "country": "Canada",
    "IATA": "YPY",
    "ICAO": "CYPY",
    "latitude": 58.7672004699707,
    "longitude": -111.11699676513672,
    "altitude": 761,
    "timezone": "-7",
    "DST": "A",
    "tz_database": "America/Edmonton",
    "type": "airport",
    "source": "OurAirports",
    "city_latitude": 58.7672004699707,
    "city_longitude": -111.11699676513672
  },
  {
    "_id": "665d9f450350b667a00d44cd",
    "name": "Muskoka Airport",
    "city": "Muskoka",
    "country": "Canada",
    "IATA": "YQA",
    "ICAO": "CYQA",
    "latitude": 44.974700927734375,
    "longitude": -79.30329895019531,
    "altitude": 925,
    "timezone": "-5",
    "DST": "A",
    "tz_database": "America/Toronto",
    "type": "airport",
    "source": "OurAirports",
    "city_latitude": 44.974700927734375,
    "city_longitude": -79.30329895019531
  },
  {
    "_id": "665d9f450350b667a00d44d5",
    "name": "Comox Airport",
    "city": "Comox",
    "country": "Canada",
    "IATA": "YQQ",
    "ICAO": "CYQQ",
    "latitude": 49.71080017089844,
    "longitude": -124.88700103759766,
    "altitude": 84,
    "timezone": "-8",
    "DST": "A",
    "tz_database": "America/Vancouver",
    "type": "airport",
    "source": "OurAirports",
    "city_latitude": 49.6733,
    "city_longitude": -124.9022
  },
  {
    "_id": "665d9f450350b667a00d44d9",
    "name": "Yorkton Municipal Airport",
    "city": "Yorkton",
    "country": "Canada",
    "IATA": "YQV",
    "ICAO": "CYQV",
    "latitude": 51.26470184326172,
    "longitude": -102.46199798583984,
    "altitude": 1635,
    "timezone": "-6",
    "DST": "N",
    "tz_database": "America/Regina",
    "type": "airport",
    "source": "OurAirports",
    "city_latitude": 51.2139,
    "city_longitude": -102.4628
  },
  {
    "_id": "665d9f450350b667a00d44dd",
    "name": "Quesnel Airport",
    "city": "Quesnel",
    "country": "Canada",
    "IATA": "YQZ",
    "ICAO": "CYQZ",
    "latitude": 53.026100158691406,
    "longitude": -122.51000213623048,
    "altitude": 1789,
    "timezone": "-8",
    "DST": "A",
    "tz_database": "America/Vancouver",
    "type": "airport",
    "source": "OurAirports",
    "city_latitude": 52.9784,
    "city_longitude": -122.4927
  },
  {
    "_id": "665d9f450350b667a00d44de",
    "name": "Resolute Bay Airport",
    "city": "Resolute",
    "country": "Canada",
    "IATA": "YRB",
    "ICAO": "CYRB",
    "latitude": 74.7169036865,
    "longitude": -94.9693984985,
    "altitude": 215,
    "timezone": "-6",
    "DST": "A",
    "tz_database": "America/Winnipeg",
    "type": "airport",
    "source": "OurAirports",
    "city_latitude": 74.7169036865,
    "city_longitude": -94.9693984985
  },
  {
    "_id": "665d9f450350b667a00d44e2",
    "name": "Rankin Inlet Airport",
    "city": "Rankin Inlet",
    "country": "Canada",
    "IATA": "YRT",
    "ICAO": "CYRT",
    "latitude": 62.8114013672,
    "longitude": -92.1157989502,
    "altitude": 94,
    "timezone": "-6",
    "DST": "A",
    "tz_database": "America/Winnipeg",
    "type": "airport",
    "source": "OurAirports",
    "city_latitude": 62.8114013672,
    "city_longitude": -92.1157989502
  },
  {
    "_id": "665d9f450350b667a00d44e3",
    "name": "Sudbury Airport",
    "city": "Sudbury",
    "country": "Canada",
    "IATA": "YSB",
    "ICAO": "CYSB",
    "latitude": 46.625,
    "longitude": -80.79889678955078,
    "altitude": 1141,
    "timezone": "-5",
    "DST": "A",
    "tz_database": "America/Toronto",
    "type": "airport",
    "source": "OurAirports",
    "city_latitude": 46.49,
    "city_longitude": -81.01
  },
  {
    "_id": "665d9f450350b667a00d44e4",
    "name": "Sherbrooke Airport",
    "city": "Sherbrooke",
    "country": "Canada",
    "IATA": "YSC",
    "ICAO": "CYSC",
    "latitude": 45.4385986328125,
    "longitude": -71.69139862060547,
    "altitude": 792,
    "timezone": "-5",
    "DST": "A",
    "tz_database": "America/Toronto",
    "type": "airport",
    "source": "OurAirports",
    "city_latitude": 45.4,
    "city_longitude": -71.9
  },
  {
    "_id": "665d9f450350b667a00d44e6",
    "name": "Fort Smith Airport",
    "city": "Fort Smith",
    "country": "Canada",
    "IATA": "YSM",
    "ICAO": "CYSM",
    "latitude": 60.020301818847656,
    "longitude": -111.96199798583984,
    "altitude": 671,
    "timezone": "-7",
    "DST": "A",
    "tz_database": "America/Edmonton",
    "type": "airport",
    "source": "OurAirports",
    "city_latitude": 60.020301818847656,
    "city_longitude": -111.96199798583984
  },
  {
    "_id": "665d9f450350b667a00d44ed",
    "name": "Timmins/Victor M. Power",
    "city": "Timmins",
    "country": "Canada",
    "IATA": "YTS",
    "ICAO": "CYTS",
    "latitude": 48.5696983337,
    "longitude": -81.376701355,
    "altitude": 967,
    "timezone": "-5",
    "DST": "A",
    "tz_database": "America/Toronto",
    "type": "airport",
    "source": "OurAirports",
    "city_latitude": 48.4667,
    "city_longitude": -81.3333
  },
  {
    "_id": "665d9f450350b667a00d44f4",
    "name": "La Ronge Airport",
    "city": "La Ronge",
    "country": "Canada",
    "IATA": "YVC",
    "ICAO": "CYVC",
    "latitude": 55.1514015198,
    "longitude": -105.262001038,
    "altitude": 1242,
    "timezone": "-6",
    "DST": "N",
    "tz_database": "America/Regina",
    "type": "airport",
    "source": "OurAirports",
    "city_latitude": 55.1514015198,
    "city_longitude": -105.262001038
  },
  {
    "_id": "665d9f450350b667a00d44f6",
    "name": "Qikiqtarjuaq Airport",
    "city": "Broughton Island",
    "country": "Canada",
    "IATA": "YVM",
    "ICAO": "CYVM",
    "latitude": 67.5457992554,
    "longitude": -64.03140258789999,
    "altitude": 21,
    "timezone": "-5",
    "DST": "A",
    "tz_database": "America/Toronto",
    "type": "airport",
    "source": "OurAirports",
    "city_latitude": 67.5457992554,
    "city_longitude": -64.03140258789999
  },
  {
    "_id": "665d9f450350b667a00d4507",
    "name": "Sioux Lookout Airport",
    "city": "Sioux Lookout",
    "country": "Canada",
    "IATA": "YXL",
    "ICAO": "CYXL",
    "latitude": 50.11389923095703,
    "longitude": -91.9052963256836,
    "altitude": 1258,
    "timezone": "-6",
    "DST": "A",
    "tz_database": "America/Winnipeg",
    "type": "airport",
    "source": "OurAirports",
    "city_latitude": 50.11389923095703,
    "city_longitude": -91.9052963256836
  },
  {
    "_id": "665d9f450350b667a00d450d",
    "name": "Abbotsford Airport",
    "city": "Abbotsford",
    "country": "Canada",
    "IATA": "YXX",
    "ICAO": "CYXX",
    "latitude": 49.025299072265625,
    "longitude": -122.36100006103516,
    "altitude": 195,
    "timezone": "-8",
    "DST": "A",
    "tz_database": "America/Vancouver",
    "type": "airport",
    "source": "OurAirports",
    "city_latitude": 49.05,
    "city_longitude": -122.3167
  },
  {
    "_id": "665d9f450350b667a00d450e",
    "name": "Whitehorse / Erik Nielsen International Airport",
    "city": "Whitehorse",
    "country": "Canada",
    "IATA": "YXY",
    "ICAO": "CYXY",
    "latitude": 60.7095985413,
    "longitude": -135.067001343,
    "altitude": 2317,
    "timezone": "-8",
    "DST": "A",
    "tz_database": "America/Vancouver",
    "type": "airport",
    "source": "OurAirports",
    "city_latitude": 60.7029,
    "city_longitude": -135.0691
  },
  {
    "_id": "665d9f450350b667a00d4511",
    "name": "Smithers Airport",
    "city": "Smithers",
    "country": "Canada",
    "IATA": "YYD",
    "ICAO": "CYYD",
    "latitude": 54.82469940185547,
    "longitude": -127.18299865722656,
    "altitude": 1712,
    "timezone": "-8",
    "DST": "A",
    "tz_database": "America/Vancouver",
    "type": "airport",
    "source": "OurAirports",
    "city_latitude": 54.82469940185547,
    "city_longitude": -127.18299865722656
  },
  {
    "_id": "665d9f450350b667a00d4517",
    "name": "Lynn Lake Airport",
    "city": "Lynn Lake",
    "country": "Canada",
    "IATA": "YYL",
    "ICAO": "CYYL",
    "latitude": 56.86389923095703,
    "longitude": -101.07599639892578,
    "altitude": 1170,
    "timezone": "-6",
    "DST": "A",
    "tz_database": "America/Winnipeg",
    "type": "airport",
    "source": "OurAirports",
    "city_latitude": 56.86389923095703,
    "city_longitude": -101.07599639892578
  },
  {
    "_id": "665d9f450350b667a00d4519",
    "name": "Churchill Airport",
    "city": "Churchill",
    "country": "Canada",
    "IATA": "YYQ",
    "ICAO": "CYYQ",
    "latitude": 58.739200592041016,
    "longitude": -94.06500244140624,
    "altitude": 94,
    "timezone": "-6",
    "DST": "A",
    "tz_database": "America/Winnipeg",
    "type": "airport",
    "source": "OurAirports",
    "city_latitude": 58.739200592041016,
    "city_longitude": -94.06500244140624
  },
  {
    "_id": "665d9f450350b667a00d451c",
    "name": "Kapuskasing Airport",
    "city": "Kapuskasing",
    "country": "Canada",
    "IATA": "YYU",
    "ICAO": "CYYU",
    "latitude": 49.41389846801758,
    "longitude": -82.46749877929688,
    "altitude": 743,
    "timezone": "-5",
    "DST": "A",
    "tz_database": "America/Toronto",
    "type": "airport",
    "source": "OurAirports",
    "city_latitude": 49.41389846801758,
    "city_longitude": -82.46749877929688
  },
  {
    "_id": "665d9f450350b667a00d451f",
    "name": "Lester B. Pearson International Airport",
    "city": "Toronto",
    "country": "Canada",
    "IATA": "YYZ",
    "ICAO": "CYYZ",
    "latitude": 43.6772003174,
    "longitude": -79.63059997559999,
    "altitude": 569,
    "timezone": "-5",
    "DST": "A",
    "tz_database": "America/Toronto",
    "type": "airport",
    "source": "OurAirports",
    "city_latitude": 43.7417,
    "city_longitude": -79.3733
  },
  {
    "_id": "665d9f450350b667a00d4522",
    "name": "Yellowknife Airport",
    "city": "Yellowknife",
    "country": "Canada",
    "IATA": "YZF",
    "ICAO": "CYZF",
    "latitude": 62.462799072265625,
    "longitude": -114.44000244140624,
    "altitude": 675,
    "timezone": "-7",
    "DST": "A",
    "tz_database": "America/Edmonton",
    "type": "airport",
    "source": "OurAirports",
    "city_latitude": 62.4709,
    "city_longitude": -114.4053
  },
  {
    "_id": "665d9f450350b667a00d452f",
    "name": "Soummam Airport",
    "city": "Bejaja",
    "country": "Algeria",
    "IATA": "BJA",
    "ICAO": "DAAE",
    "latitude": 36.7120018005,
    "longitude": 5.0699200630200005,
    "altitude": 20,
    "timezone": "1",
    "DST": "N",
    "tz_database": "Africa/Algiers",
    "type": "airport",
    "source": "OurAirports",
    "city_latitude": 36.7120018005,
    "city_longitude": 5.0699200630200005
  },
  {
    "_id": "665d9f450350b667a00d4536",
    "name": "Aguenar \u2013 Hadj Bey Akhamok Airport",
    "city": "Tamanrasset",
    "country": "Algeria",
    "IATA": "TMR",
    "ICAO": "DAAT",
    "latitude": 22.8115005493,
    "longitude": 5.45107984543,
    "altitude": 4518,
    "timezone": "1",
    "DST": "N",
    "tz_database": "Africa/Algiers",
    "type": "airport",
    "source": "OurAirports",
    "city_latitude": 22.7889,
    "city_longitude": 5.5256
  },
  {
    "_id": "665d9f450350b667a00d453d",
    "name": "Hassi R'Mel Airport",
    "city": "Tilrempt",
    "country": "Algeria",
    "IATA": "HRM",
    "ICAO": "DAFH",
    "latitude": 32.93040084838867,
    "longitude": 3.311539888381958,
    "altitude": 2540,
    "timezone": "1",
    "DST": "N",
    "tz_database": "Africa/Algiers",
    "type": "airport",
    "source": "OurAirports",
    "city_latitude": 32.93040084838867,
    "city_longitude": 3.311539888381958
  },
  {
    "_id": "665d9f450350b667a00d4540",
    "name": "Tindouf Airport",
    "city": "Tindouf",
    "country": "Algeria",
    "IATA": "TIN",
    "ICAO": "DAOF",
    "latitude": 27.7003993988,
    "longitude": -8.167099952700001,
    "altitude": 1453,
    "timezone": "1",
    "DST": "N",
    "tz_database": "Africa/Algiers",
    "type": "airport",
    "source": "OurAirports",
    "city_latitude": 27.6753,
    "city_longitude": -8.1286
  },
  {
    "_id": "665d9f450350b667a00d4542",
    "name": "Tafaraoui Airport",
    "city": "Oran",
    "country": "Algeria",
    "IATA": "TAF",
    "ICAO": "DAOL",
    "latitude": 35.54240036010742,
    "longitude": -0.5322780013084412,
    "altitude": 367,
    "timezone": "1",
    "DST": "N",
    "tz_database": "Africa/Algiers",
    "type": "airport",
    "source": "OurAirports",
    "city_latitude": 35.6969,
    "city_longitude": -0.6331
  },
  {
    "_id": "665d9f450350b667a00d4548",
    "name": "Biskra Airport",
    "city": "Biskra",
    "country": "Algeria",
    "IATA": "BSK",
    "ICAO": "DAUB",
    "latitude": 34.7933006287,
    "longitude": 5.73823022842,
    "altitude": 289,
    "timezone": "1",
    "DST": "N",
    "tz_database": "Africa/Algiers",
    "type": "airport",
    "source": "OurAirports",
    "city_latitude": 34.85,
    "city_longitude": 5.7333
  },
  {
    "_id": "665d9f450350b667a00d454a",
    "name": "Noum\u00e9rat - Moufdi Zakaria Airport",
    "city": "Ghardaia",
    "country": "Algeria",
    "IATA": "GHA",
    "ICAO": "DAUG",
    "latitude": 32.38410186767578,
    "longitude": 3.794110059738159,
    "altitude": 1512,
    "timezone": "1",
    "DST": "N",
    "tz_database": "Africa/Algiers",
    "type": "airport",
    "source": "OurAirports",
    "city_latitude": 32.4833,
    "city_longitude": 3.6667
  },
  {
    "_id": "665d9f450350b667a00d454b",
    "name": "Oued Irara Airport",
    "city": "Hassi Messaoud",
    "country": "Algeria",
    "IATA": "HME",
    "ICAO": "DAUH",
    "latitude": 31.6730003357,
    "longitude": 6.140439987180001,
    "altitude": 463,
    "timezone": "1",
    "DST": "N",
    "tz_database": "Africa/Algiers",
    "type": "airport",
    "source": "OurAirports",
    "city_latitude": 31.7,
    "city_longitude": 6.0667
  },
  {
    "_id": "665d9f450350b667a00d454c",
    "name": "In Salah Airport",
    "city": "In Salah",
    "country": "Algeria",
    "IATA": "INZ",
    "ICAO": "DAUI",
    "latitude": 27.2509994507,
    "longitude": 2.51202011108,
    "altitude": 896,
    "timezone": "1",
    "DST": "N",
    "tz_database": "Africa/Algiers",
    "type": "airport",
    "source": "OurAirports",
    "city_latitude": 27.2509994507,
    "city_longitude": 2.51202011108
  },
  {
    "_id": "665d9f450350b667a00d4556",
    "name": "Tamale Airport",
    "city": "Tamale",
    "country": "Ghana",
    "IATA": "TML",
    "ICAO": "DGLE",
    "latitude": 9.55718994140625,
    "longitude": -0.8632140159606934,
    "altitude": 553,
    "timezone": "0",
    "DST": "N",
    "tz_database": "Africa/Accra",
    "type": "airport",
    "source": "OurAirports",
    "city_latitude": 9.4075,
    "city_longitude": -0.8533
  },
  {
    "_id": "665d9f450350b667a00d455c",
    "name": "Daloa Airport",
    "city": "Daloa",
    "country": "Cote d'Ivoire",
    "IATA": "DJO",
    "ICAO": "DIDL",
    "latitude": 6.792809963226318,
    "longitude": -6.473189830780029,
    "altitude": 823,
    "timezone": "0",
    "DST": "N",
    "tz_database": "Africa/Abidjan",
    "type": "airport",
    "source": "OurAirports",
    "city_latitude": 6.792809963226318,
    "city_longitude": -6.473189830780029
  },
  {
    "_id": "665d9f450350b667a00d455d",
    "name": "Korhogo Airport",
    "city": "Korhogo",
    "country": "Cote d'Ivoire",
    "IATA": "HGO",
    "ICAO": "DIKO",
    "latitude": 9.38718032837,
    "longitude": -5.55666017532,
    "altitude": 1214,
    "timezone": "0",
    "DST": "N",
    "tz_database": "Africa/Abidjan",
    "type": "airport",
    "source": "OurAirports",
    "city_latitude": 9.38718032837,
    "city_longitude": -5.55666017532
  },
  {
    "_id": "665d9f450350b667a00d455f",
    "name": "San Pedro Airport",
    "city": "San Pedro",
    "country": "Cote d'Ivoire",
    "IATA": "SPY",
    "ICAO": "DISP",
    "latitude": 4.746719837188721,
    "longitude": -6.660820007324219,
    "altitude": 26,
    "timezone": "0",
    "DST": "N",
    "tz_database": "Africa/Abidjan",
    "type": "airport",
    "source": "OurAirports",
    "city_latitude": 4.746719837188721,
    "city_longitude": -6.660820007324219
  },
  {
    "_id": "665d9f450350b667a00d456d",
    "name": "Makurdi Airport",
    "city": "Makurdi",
    "country": "Nigeria",
    "IATA": "MDI",
    "ICAO": "DNMK",
    "latitude": 7.70388,
    "longitude": 8.61394,
    "altitude": 371,
    "timezone": "1",
    "DST": "N",
    "tz_database": "Africa/Lagos",
    "type": "airport",
    "source": "OurAirports",
    "city_latitude": 7.7333,
    "city_longitude": 8.5
  },
  {
    "_id": "665d9f450350b667a00d456e",
    "name": "Murtala Muhammed International Airport",
    "city": "Lagos",
    "country": "Nigeria",
    "IATA": "LOS",
    "ICAO": "DNMM",
    "latitude": 6.5773701667785645,
    "longitude": 3.321160078048706,
    "altitude": 135,
    "timezone": "1",
    "DST": "N",
    "tz_database": "Africa/Lagos",
    "type": "airport",
    "source": "OurAirports",
    "city_latitude": 6.455,
    "city_longitude": 3.3841
  },
  {
    "_id": "665d9f450350b667a00d457b",
    "name": "Monastir Habib Bourguiba International Airport",
    "city": "Monastir",
    "country": "Tunisia",
    "IATA": "MIR",
    "ICAO": "DTMB",
    "latitude": 35.75809860229492,
    "longitude": 10.75469970703125,
    "altitude": 9,
    "timezone": "1",
    "DST": "E",
    "tz_database": "Africa/Tunis",
    "type": "airport",
    "source": "OurAirports",
    "city_latitude": 35.7694,
    "city_longitude": 10.8194
  },
  {
    "_id": "665d9f450350b667a00d457e",
    "name": "Remada Air Base",
    "city": "Remada",
    "country": "Tunisia",
    "IATA": "\\N",
    "ICAO": "DTTD",
    "latitude": 32.30619812011719,
    "longitude": 10.382100105285645,
    "altitude": 1004,
    "timezone": "1",
    "DST": "E",
    "tz_database": "Africa/Tunis",
    "type": "airport",
    "source": "OurAirports",
    "city_latitude": 32.3061,
    "city_longitude": 10.3822
  },
  {
    "_id": "665d9f450350b667a00d4584",
    "name": "Sfax Thyna International Airport",
    "city": "Sfax",
    "country": "Tunisia",
    "IATA": "SFA",
    "ICAO": "DTTX",
    "latitude": 34.71799850463867,
    "longitude": 10.690999984741213,
    "altitude": 85,
    "timezone": "1",
    "DST": "E",
    "tz_database": "Africa/Tunis",
    "type": "airport",
    "source": "OurAirports",
    "city_latitude": 34.74,
    "city_longitude": 10.76
  },
  {
    "_id": "665d9f450350b667a00d458c",
    "name": "Jehonville Air Base",
    "city": "Bertrix",
    "country": "Belgium",
    "IATA": "\\N",
    "ICAO": "EBBX",
    "latitude": 49.891700744628906,
    "longitude": 5.223889827728272,
    "altitude": 1514,
    "timezone": "1",
    "DST": "E",
    "tz_database": "Europe/Brussels",
    "type": "airport",
    "source": "OurAirports",
    "city_latitude": 49.8542,
    "city_longitude": 5.2533
  },
  {
    "_id": "665d9f450350b667a00d458f",
    "name": "Koksijde Air Base",
    "city": "Koksijde",
    "country": "Belgium",
    "IATA": "\\N",
    "ICAO": "EBFN",
    "latitude": 51.09030151367188,
    "longitude": 2.652780055999756,
    "altitude": 20,
    "timezone": "1",
    "DST": "E",
    "tz_database": "Europe/Brussels",
    "type": "airport",
    "source": "OurAirports",
    "city_latitude": 51.1,
    "city_longitude": 2.65
  },
  {
    "_id": "665d9f450350b667a00d4598",
    "name": "Weelde Air Base",
    "city": "Weelde",
    "country": "Belgium",
    "IATA": "\\N",
    "ICAO": "EBWE",
    "latitude": 51.394798278808594,
    "longitude": 4.9601898193359375,
    "altitude": 105,
    "timezone": "1",
    "DST": "E",
    "tz_database": "Europe/Brussels",
    "type": "airport",
    "source": "OurAirports",
    "city_latitude": 51.394798278808594,
    "city_longitude": 4.9601898193359375
  },
  {
    "_id": "665d9f450350b667a00d4599",
    "name": "Zoersel (Oostmalle) Airfield",
    "city": "Zoersel",
    "country": "Belgium",
    "IATA": "OBL",
    "ICAO": "EBZR",
    "latitude": 51.264702,
    "longitude": 4.75333,
    "altitude": 53,
    "timezone": "1",
    "DST": "E",
    "tz_database": "Europe/Brussels",
    "type": "airport",
    "source": "OurAirports",
    "city_latitude": 51.2667,
    "city_longitude": 4.7
  },
  {
    "_id": "665d9f450350b667a00d459a",
    "name": "Flugplatz Bautzen",
    "city": "Bautzen",
    "country": "Germany",
    "IATA": "\\N",
    "ICAO": "EDAB",
    "latitude": 51.193611,
    "longitude": 14.519722,
    "altitude": 568,
    "timezone": "1",
    "DST": "E",
    "tz_database": "Europe/Berlin",
    "type": "airport",
    "source": "OurAirports",
    "city_latitude": 51.1814,
    "city_longitude": 14.4242
  },
  {
    "_id": "665d9f450350b667a00d45a0",
    "name": "Halle-Oppin Airport",
    "city": "Halle",
    "country": "Germany",
    "IATA": "\\N",
    "ICAO": "EDAQ",
    "latitude": 51.552223,
    "longitude": 12.053889,
    "altitude": 348,
    "timezone": "1",
    "DST": "E",
    "tz_database": "Europe/Berlin",
    "type": "airport",
    "source": "OurAirports",
    "city_latitude": 51.4828,
    "city_longitude": 11.9697
  },
  {
    "_id": "665d9f450350b667a00d45a2",
    "name": "Rechlin-L\u00e4rz Airport",
    "city": "Rechlin-laerz",
    "country": "Germany",
    "IATA": "REB",
    "ICAO": "EDAX",
    "latitude": 53.306388855,
    "longitude": 12.7522220612,
    "altitude": 220,
    "timezone": "1",
    "DST": "E",
    "tz_database": "Europe/Berlin",
    "type": "airport",
    "source": "OurAirports",
    "city_latitude": 53.306388855,
    "city_longitude": 12.7522220612
  },
  {
    "_id": "665d9f450350b667a00d45a6",
    "name": "Jena-Sch\u00f6ngleina Airfield",
    "city": "Jena",
    "country": "Germany",
    "IATA": "\\N",
    "ICAO": "EDBJ",
    "latitude": 50.915279,
    "longitude": 11.714444,
    "altitude": 1247,
    "timezone": "1",
    "DST": "E",
    "tz_database": "Europe/Berlin",
    "type": "airport",
    "source": "OurAirports",
    "city_latitude": 50.9272,
    "city_longitude": 11.5861
  },
  {
    "_id": "665d9f450350b667a00d45a7",
    "name": "Kyritz Airport",
    "city": "Kyritz",
    "country": "Germany",
    "IATA": "\\N",
    "ICAO": "EDBK",
    "latitude": 52.918888092041016,
    "longitude": 12.425277709960938,
    "altitude": 131,
    "timezone": "1",
    "DST": "E",
    "tz_database": "Europe/Berlin",
    "type": "airport",
    "source": "OurAirports",
    "city_latitude": 52.95,
    "city_longitude": 12.4
  },
  {
    "_id": "665d9f450350b667a00d45ac",
    "name": "Kamenz Airport",
    "city": "Kamenz",
    "country": "Germany",
    "IATA": "\\N",
    "ICAO": "EDCM",
    "latitude": 51.29694366455078,
    "longitude": 14.1274995803833,
    "altitude": 495,
    "timezone": "1",
    "DST": "E",
    "tz_database": "Europe/Berlin",
    "type": "airport",
    "source": "OurAirports",
    "city_latitude": 51.2667,
    "city_longitude": 14.1
  },
  {
    "_id": "665d9f450350b667a00d45ad",
    "name": "Berlin-Sch\u00f6nefeld Airport",
    "city": "Berlin",
    "country": "Germany",
    "IATA": "SXF",
    "ICAO": "EDDB",
    "latitude": 52.380001,
    "longitude": 13.5225,
    "altitude": 157,
    "timezone": "1",
    "DST": "E",
    "tz_database": "Europe/Berlin",
    "type": "airport",
    "source": "OurAirports",
    "city_latitude": 52.52,
    "city_longitude": 13.405
  },
  {
    "_id": "665d9f450350b667a00d45ae",
    "name": "Dresden Airport",
    "city": "Dresden",
    "country": "Germany",
    "IATA": "DRS",
    "ICAO": "EDDC",
    "latitude": 51.1328010559082,
    "longitude": 13.767200469970703,
    "altitude": 755,
    "timezone": "1",
    "DST": "E",
    "tz_database": "Europe/Berlin",
    "type": "airport",
    "source": "OurAirports",
    "city_latitude": 51.05,
    "city_longitude": 13.74
  },
  {
    "_id": "665d9f450350b667a00d45b1",
    "name": "M\u00fcnster Osnabr\u00fcck Airport",
    "city": "Munster",
    "country": "Germany",
    "IATA": "FMO",
    "ICAO": "EDDG",
    "latitude": 52.134601593,
    "longitude": 7.68483018875,
    "altitude": 160,
    "timezone": "1",
    "DST": "E",
    "tz_database": "Europe/Berlin",
    "type": "airport",
    "source": "OurAirports",
    "city_latitude": 51.9625,
    "city_longitude": 7.6256
  },
  {
    "_id": "665d9f450350b667a00d45b2",
    "name": "Hamburg Airport",
    "city": "Hamburg",
    "country": "Germany",
    "IATA": "HAM",
    "ICAO": "EDDH",
    "latitude": 53.630401611328,
    "longitude": 9.9882297515869,
    "altitude": 53,
    "timezone": "1",
    "DST": "E",
    "tz_database": "Europe/Berlin",
    "type": "airport",
    "source": "OurAirports",
    "city_latitude": 53.55,
    "city_longitude": 10.0
  },
  {
    "_id": "665d9f450350b667a00d45b3",
    "name": "Berlin-Tempelhof International Airport",
    "city": "Berlin",
    "country": "Germany",
    "IATA": "THF",
    "ICAO": "EDDI",
    "latitude": 52.47299957275391,
    "longitude": 13.403900146484377,
    "altitude": 167,
    "timezone": "1",
    "DST": "E",
    "tz_database": "Europe/Berlin",
    "type": "airport",
    "source": "OurAirports",
    "city_latitude": 52.52,
    "city_longitude": 13.405
  },
  {
    "_id": "665d9f450350b667a00d45b4",
    "name": "Cologne Bonn Airport",
    "city": "Cologne",
    "country": "Germany",
    "IATA": "CGN",
    "ICAO": "EDDK",
    "latitude": 50.8658981323,
    "longitude": 7.1427397728,
    "altitude": 302,
    "timezone": "1",
    "DST": "E",
    "tz_database": "Europe/Berlin",
    "type": "airport",
    "source": "OurAirports",
    "city_latitude": 50.9364,
    "city_longitude": 6.9528
  },
  {
    "_id": "665d9f450350b667a00d45ba",
    "name": "Stuttgart Airport",
    "city": "Stuttgart",
    "country": "Germany",
    "IATA": "STR",
    "ICAO": "EDDS",
    "latitude": 48.6898994446,
    "longitude": 9.22196006775,
    "altitude": 1276,
    "timezone": "1",
    "DST": "E",
    "tz_database": "Europe/Berlin",
    "type": "airport",
    "source": "OurAirports",
    "city_latitude": 48.7775,
    "city_longitude": 9.18
  },
  {
    "_id": "665d9f450350b667a00d45bd",
    "name": "Bremen Airport",
    "city": "Bremen",
    "country": "Germany",
    "IATA": "BRE",
    "ICAO": "EDDW",
    "latitude": 53.0475006104,
    "longitude": 8.78666973114,
    "altitude": 14,
    "timezone": "1",
    "DST": "E",
    "tz_database": "Europe/Berlin",
    "type": "airport",
    "source": "OurAirports",
    "city_latitude": 53.0758,
    "city_longitude": 8.8072
  },
  {
    "_id": "665d9f450350b667a00d45c1",
    "name": "Allendorf/Eder Airport",
    "city": "Allendorf",
    "country": "Germany",
    "IATA": "\\N",
    "ICAO": "EDFQ",
    "latitude": 51.03499984741211,
    "longitude": 8.680832862854004,
    "altitude": 1158,
    "timezone": "1",
    "DST": "E",
    "tz_database": "Europe/Berlin",
    "type": "airport",
    "source": "OurAirports",
    "city_latitude": 51.03499984741211,
    "city_longitude": 8.680832862854004
  },
  {
    "_id": "665d9f450350b667a00d45cf",
    "name": "Paderborn Lippstadt Airport",
    "city": "Paderborn",
    "country": "Germany",
    "IATA": "PAD",
    "ICAO": "EDLP",
    "latitude": 51.6141014099,
    "longitude": 8.616319656369999,
    "altitude": 699,
    "timezone": "1",
    "DST": "E",
    "tz_database": "Europe/Berlin",
    "type": "airport",
    "source": "OurAirports",
    "city_latitude": 51.7181,
    "city_longitude": 8.7542
  },
  {
    "_id": "665d9f450350b667a00d45d5",
    "name": "Mindelheim-Mattsies Airfield",
    "city": "Mindelheim",
    "country": "Germany",
    "IATA": "\\N",
    "ICAO": "EDMN",
    "latitude": 48.106945,
    "longitude": 10.525,
    "altitude": 1857,
    "timezone": "1",
    "DST": "E",
    "tz_database": "Europe/Berlin",
    "type": "airport",
    "source": "OurAirports",
    "city_latitude": 48.0333,
    "city_longitude": 10.4667
  },
  {
    "_id": "665d9f450350b667a00d45d6",
    "name": "Oberpfaffenhofen Airport",
    "city": "Oberpfaffenhofen",
    "country": "Germany",
    "IATA": "OBF",
    "ICAO": "EDMO",
    "latitude": 48.081402,
    "longitude": 11.2831,
    "altitude": 1947,
    "timezone": "1",
    "DST": "E",
    "tz_database": "Europe/Berlin",
    "type": "airport",
    "source": "OurAirports",
    "city_latitude": 48.081402,
    "city_longitude": 11.2831
  },
  {
    "_id": "665d9f450350b667a00d45da",
    "name": "Friedrichshafen Airport",
    "city": "Friedrichshafen",
    "country": "Germany",
    "IATA": "FDH",
    "ICAO": "EDNY",
    "latitude": 47.6712989807,
    "longitude": 9.51148986816,
    "altitude": 1367,
    "timezone": "1",
    "DST": "E",
    "tz_database": "Europe/Berlin",
    "type": "airport",
    "source": "OurAirports",
    "city_latitude": 47.65,
    "city_longitude": 9.4833
  },
  {
    "_id": "665d9f450350b667a00d45e1",
    "name": "Ha\u00dffurt-Schweinfurt Airport",
    "city": "Hassfurt",
    "country": "Germany",
    "IATA": "\\N",
    "ICAO": "EDQT",
    "latitude": 50.0180549621582,
    "longitude": 10.529443740844728,
    "altitude": 719,
    "timezone": "1",
    "DST": "E",
    "tz_database": "Europe/Berlin",
    "type": "airport",
    "source": "OurAirports",
    "city_latitude": 50.0167,
    "city_longitude": 10.5
  },
  {
    "_id": "665d9f450350b667a00d45e6",
    "name": "Donaueschingen-Villingen Airport",
    "city": "Donaueschingen",
    "country": "Germany",
    "IATA": "ZQL",
    "ICAO": "EDTD",
    "latitude": 47.97333145139999,
    "longitude": 8.52222156525,
    "altitude": 2231,
    "timezone": "1",
    "DST": "E",
    "tz_database": "Europe/Berlin",
    "type": "airport",
    "source": "OurAirports",
    "city_latitude": 47.9531,
    "city_longitude": 8.5033
  },
  {
    "_id": "665d9f450350b667a00d45e7",
    "name": "Freiburg i. Br. Airport",
    "city": "Freiburg",
    "country": "Germany",
    "IATA": "\\N",
    "ICAO": "EDTF",
    "latitude": 48.022777557400005,
    "longitude": 7.83249998093,
    "altitude": 801,
    "timezone": "1",
    "DST": "E",
    "tz_database": "Europe/Berlin",
    "type": "airport",
    "source": "OurAirports",
    "city_latitude": 48.022777557400005,
    "city_longitude": 7.83249998093
  },
  {
    "_id": "665d9f450350b667a00d45ec",
    "name": "Kassel-Calden Airport",
    "city": "Kassel",
    "country": "Germany",
    "IATA": "KSF",
    "ICAO": "EDVK",
    "latitude": 51.417273,
    "longitude": 9.384967,
    "altitude": 820,
    "timezone": "1",
    "DST": "E",
    "tz_database": "Europe/Berlin",
    "type": "airport",
    "source": "OurAirports",
    "city_latitude": 51.3158,
    "city_longitude": 9.4979
  },
  {
    "_id": "665d9f450350b667a00d45f1",
    "name": "Wilhelmshaven-Mariensiel Airport",
    "city": "Wilhelmshaven",
    "country": "Germany",
    "IATA": "WVN",
    "ICAO": "EDWI",
    "latitude": 53.502220153808594,
    "longitude": 8.05222225189209,
    "altitude": 16,
    "timezone": "1",
    "DST": "E",
    "tz_database": "Europe/Berlin",
    "type": "airport",
    "source": "OurAirports",
    "city_latitude": 53.5286,
    "city_longitude": 8.1056
  },
  {
    "_id": "665d9f450350b667a00d45f2",
    "name": "Borkum Airport",
    "city": "Borkum",
    "country": "Germany",
    "IATA": "BMK",
    "ICAO": "EDWR",
    "latitude": 53.59639,
    "longitude": 6.709167,
    "altitude": 3,
    "timezone": "1",
    "DST": "E",
    "tz_database": "Europe/Berlin",
    "type": "airport",
    "source": "OurAirports",
    "city_latitude": 53.59639,
    "city_longitude": 6.709167
  },
  {
    "_id": "665d9f450350b667a00d45f4",
    "name": "Flensburg-Sch\u00e4ferhaus Airport",
    "city": "Flensburg",
    "country": "Germany",
    "IATA": "FLF",
    "ICAO": "EDXF",
    "latitude": 54.77333450317383,
    "longitude": 9.378889083862305,
    "altitude": 131,
    "timezone": "1",
    "DST": "E",
    "tz_database": "Europe/Berlin",
    "type": "airport",
    "source": "OurAirports",
    "city_latitude": 54.7819,
    "city_longitude": 9.4367
  },
  {
    "_id": "665d9f450350b667a00d4601",
    "name": "Helsinki Vantaa Airport",
    "city": "Helsinki",
    "country": "Finland",
    "IATA": "HEL",
    "ICAO": "EFHK",
    "latitude": 60.317199707031,
    "longitude": 24.963300704956,
    "altitude": 179,
    "timezone": "2",
    "DST": "E",
    "tz_database": "Europe/Helsinki",
    "type": "airport",
    "source": "OurAirports",
    "city_latitude": 60.1708,
    "city_longitude": 24.9375
  },
  {
    "_id": "665d9f450350b667a00d4606",
    "name": "Immola Airport",
    "city": "Immola",
    "country": "Finland",
    "IATA": "\\N",
    "ICAO": "EFIM",
    "latitude": 61.24919891357422,
    "longitude": 28.90369987487793,
    "altitude": 338,
    "timezone": "2",
    "DST": "E",
    "tz_database": "Europe/Helsinki",
    "type": "airport",
    "source": "OurAirports",
    "city_latitude": 61.24919891357422,
    "city_longitude": 28.90369987487793
  },
  {
    "_id": "665d9f450350b667a00d4608",
    "name": "Ivalo Airport",
    "city": "Ivalo",
    "country": "Finland",
    "IATA": "IVL",
    "ICAO": "EFIV",
    "latitude": 68.607299804688,
    "longitude": 27.405300140381,
    "altitude": 481,
    "timezone": "2",
    "DST": "E",
    "tz_database": "Europe/Helsinki",
    "type": "airport",
    "source": "OurAirports",
    "city_latitude": 68.607299804688,
    "city_longitude": 27.405300140381
  },
  {
    "_id": "665d9f450350b667a00d460b",
    "name": "Kauhava Airport",
    "city": "Kauhava",
    "country": "Finland",
    "IATA": "KAU",
    "ICAO": "EFKA",
    "latitude": 63.127102,
    "longitude": 23.051399,
    "altitude": 151,
    "timezone": "2",
    "DST": "E",
    "tz_database": "Europe/Helsinki",
    "type": "airport",
    "source": "OurAirports",
    "city_latitude": 63.1,
    "city_longitude": 23.0667
  },
  {
    "_id": "665d9f450350b667a00d4617",
    "name": "Menkijarvi Airport",
    "city": "Menkijarvi",
    "country": "Finland",
    "IATA": "\\N",
    "ICAO": "EFME",
    "latitude": 62.94670104980469,
    "longitude": 23.51889991760254,
    "altitude": 331,
    "timezone": "2",
    "DST": "E",
    "tz_database": "Europe/Helsinki",
    "type": "airport",
    "source": "OurAirports",
    "city_latitude": 62.94670104980469,
    "city_longitude": 23.51889991760254
  },
  {
    "_id": "665d9f450350b667a00d4619",
    "name": "Nummela Airport",
    "city": "Nummela",
    "country": "Finland",
    "IATA": "\\N",
    "ICAO": "EFNU",
    "latitude": 60.3339004517,
    "longitude": 24.2964000702,
    "altitude": 367,
    "timezone": "2",
    "DST": "E",
    "tz_database": "Europe/Helsinki",
    "type": "airport",
    "source": "OurAirports",
    "city_latitude": 60.3339004517,
    "city_longitude": 24.2964000702
  },
  {
    "_id": "665d9f450350b667a00d461e",
    "name": "Pyh\u00e4salmi Airport",
    "city": "Pyhasalmi",
    "country": "Finland",
    "IATA": "\\N",
    "ICAO": "EFPY",
    "latitude": 63.7318992615,
    "longitude": 25.9263000488,
    "altitude": 528,
    "timezone": "2",
    "DST": "E",
    "tz_database": "Europe/Helsinki",
    "type": "airport",
    "source": "OurAirports",
    "city_latitude": 63.7318992615,
    "city_longitude": 25.9263000488
  },
  {
    "_id": "665d9f450350b667a00d4625",
    "name": "Sodankyla Airport",
    "city": "Sodankyla",
    "country": "Finland",
    "IATA": "SOT",
    "ICAO": "EFSO",
    "latitude": 67.3949966431,
    "longitude": 26.6191005707,
    "altitude": 602,
    "timezone": "2",
    "DST": "E",
    "tz_database": "Europe/Helsinki",
    "type": "airport",
    "source": "OurAirports",
    "city_latitude": 67.4167,
    "city_longitude": 26.5833
  },
  {
    "_id": "665d9f450350b667a00d4626",
    "name": "Tampere-Pirkkala Airport",
    "city": "Tampere",
    "country": "Finland",
    "IATA": "TMP",
    "ICAO": "EFTP",
    "latitude": 61.414100646973,
    "longitude": 23.604400634766,
    "altitude": 390,
    "timezone": "2",
    "DST": "E",
    "tz_database": "Europe/Helsinki",
    "type": "airport",
    "source": "OurAirports",
    "city_latitude": 61.4981,
    "city_longitude": 23.76
  },
  {
    "_id": "665d9f450350b667a00d4629",
    "name": "Utti Air Base",
    "city": "Utti",
    "country": "Finland",
    "IATA": "UTI",
    "ICAO": "EFUT",
    "latitude": 60.89640045166,
    "longitude": 26.938400268555,
    "altitude": 339,
    "timezone": "2",
    "DST": "E",
    "tz_database": "Europe/Helsinki",
    "type": "airport",
    "source": "OurAirports",
    "city_latitude": 60.89640045166,
    "city_longitude": 26.938400268555
  },
  {
    "_id": "665d9f450350b667a00d462a",
    "name": "Vaasa Airport",
    "city": "Vaasa",
    "country": "Finland",
    "IATA": "VAA",
    "ICAO": "EFVA",
    "latitude": 63.050701141357,
    "longitude": 21.762199401855,
    "altitude": 19,
    "timezone": "2",
    "DST": "E",
    "tz_database": "Europe/Helsinki",
    "type": "airport",
    "source": "OurAirports",
    "city_latitude": 63.1,
    "city_longitude": 21.6167
  },
  {
    "_id": "665d9f450350b667a00d4631",
    "name": "Birmingham International Airport",
    "city": "Birmingham",
    "country": "United Kingdom",
    "IATA": "BHX",
    "ICAO": "EGBB",
    "latitude": 52.4538993835,
    "longitude": -1.74802994728,
    "altitude": 327,
    "timezone": "0",
    "DST": "E",
    "tz_database": "Europe/London",
    "type": "airport",
    "source": "OurAirports",
    "city_latitude": 52.48,
    "city_longitude": -1.9025
  },
  {
    "_id": "665d9f450350b667a00d463a",
    "name": "Manchester Woodford Airport",
    "city": "Woodfort",
    "country": "United Kingdom",
    "IATA": "\\N",
    "ICAO": "EGCD",
    "latitude": 53.3381,
    "longitude": -2.14889,
    "altitude": 295,
    "timezone": "0",
    "DST": "E",
    "tz_database": "Europe/London",
    "type": "airport",
    "source": "OurAirports",
    "city_latitude": 53.3381,
    "city_longitude": -2.14889
  },
  {
    "_id": "665d9f450350b667a00d4644",
    "name": "Swansea Airport",
    "city": "Swansea",
    "country": "United Kingdom",
    "IATA": "SWS",
    "ICAO": "EGFH",
    "latitude": 51.60530090332031,
    "longitude": -4.0678300857543945,
    "altitude": 299,
    "timezone": "0",
    "DST": "E",
    "tz_database": "Europe/London",
    "type": "airport",
    "source": "OurAirports",
    "city_latitude": 51.60530090332031,
    "city_longitude": -4.0678300857543945
  },
  {
    "_id": "665d9f450350b667a00d4648",
    "name": "Plymouth City Airport",
    "city": "Plymouth",
    "country": "United Kingdom",
    "IATA": "PLH",
    "ICAO": "EGHD",
    "latitude": 50.422798,
    "longitude": -4.10583,
    "altitude": 476,
    "timezone": "0",
    "DST": "E",
    "tz_database": "Europe/London",
    "type": "airport",
    "source": "OurAirports",
    "city_latitude": 50.3714,
    "city_longitude": -4.1422
  },
  {
    "_id": "665d9f450350b667a00d4649",
    "name": "Bournemouth Airport",
    "city": "Bournemouth",
    "country": "United Kingdom",
    "IATA": "BOH",
    "ICAO": "EGHH",
    "latitude": 50.77999877929688,
    "longitude": -1.8424999713897705,
    "altitude": 38,
    "timezone": "0",
    "DST": "E",
    "tz_database": "Europe/London",
    "type": "airport",
    "source": "OurAirports",
    "city_latitude": 50.72,
    "city_longitude": -1.88
  },
  {
    "_id": "665d9f450350b667a00d464b",
    "name": "Lasham Airport",
    "city": "Lasham",
    "country": "United Kingdom",
    "IATA": "QLA",
    "ICAO": "EGHL",
    "latitude": 51.187198638916016,
    "longitude": -1.0334999561309814,
    "altitude": 618,
    "timezone": "0",
    "DST": "E",
    "tz_database": "Europe/London",
    "type": "airport",
    "source": "OurAirports",
    "city_latitude": 51.187198638916016,
    "city_longitude": -1.0334999561309814
  },
  {
    "_id": "665d9f450350b667a00d4651",
    "name": "London Gatwick Airport",
    "city": "London",
    "country": "United Kingdom",
    "IATA": "LGW",
    "ICAO": "EGKK",
    "latitude": 51.148102,
    "longitude": -0.190278,
    "altitude": 202,
    "timezone": "0",
    "DST": "E",
    "tz_database": "Europe/London",
    "type": "airport",
    "source": "OurAirports",
    "city_latitude": 51.5072,
    "city_longitude": -0.1275
  },
  {
    "_id": "665d9f450350b667a00d4659",
    "name": "Kent International Airport",
    "city": "Manston",
    "country": "United Kingdom",
    "IATA": "MSE",
    "ICAO": "EGMH",
    "latitude": 51.342201,
    "longitude": 1.34611,
    "altitude": 178,
    "timezone": "0",
    "DST": "E",
    "tz_database": "Europe/London",
    "type": "airport",
    "source": "OurAirports",
    "city_latitude": 51.342201,
    "city_longitude": 1.34611
  },
  {
    "_id": "665d9f450350b667a00d465b",
    "name": "Carlisle Airport",
    "city": "Carlisle",
    "country": "United Kingdom",
    "IATA": "CAX",
    "ICAO": "EGNC",
    "latitude": 54.9375,
    "longitude": -2.8091700077056885,
    "altitude": 190,
    "timezone": "0",
    "DST": "E",
    "tz_database": "Europe/London",
    "type": "airport",
    "source": "OurAirports",
    "city_latitude": 54.8947,
    "city_longitude": -2.9364
  },
  {
    "_id": "665d9f450350b667a00d465d",
    "name": "Blackpool International Airport",
    "city": "Blackpool",
    "country": "United Kingdom",
    "IATA": "BLK",
    "ICAO": "EGNH",
    "latitude": 53.77170181274414,
    "longitude": -3.0286099910736084,
    "altitude": 34,
    "timezone": "0",
    "DST": "E",
    "tz_database": "Europe/London",
    "type": "airport",
    "source": "OurAirports",
    "city_latitude": 53.8142,
    "city_longitude": -3.0503
  },
  {
    "_id": "665d9f450350b667a00d465e",
    "name": "Humberside Airport",
    "city": "Humberside",
    "country": "United Kingdom",
    "IATA": "HUY",
    "ICAO": "EGNJ",
    "latitude": 53.57440185546875,
    "longitude": -0.350832998752594,
    "altitude": 121,
    "timezone": "0",
    "DST": "E",
    "tz_database": "Europe/London",
    "type": "airport",
    "source": "OurAirports",
    "city_latitude": 53.57440185546875,
    "city_longitude": -0.350832998752594
  },
  {
    "_id": "665d9f450350b667a00d465f",
    "name": "Barrow Walney Island Airport",
    "city": "Barrow Island",
    "country": "United Kingdom",
    "IATA": "BWF",
    "ICAO": "EGNL",
    "latitude": 54.1286111,
    "longitude": -3.2675,
    "altitude": 173,
    "timezone": "0",
    "DST": "E",
    "tz_database": "Europe/London",
    "type": "airport",
    "source": "OurAirports",
    "city_latitude": 54.1286111,
    "city_longitude": -3.2675
  },
  {
    "_id": "665d9f450350b667a00d4660",
    "name": "Leeds Bradford Airport",
    "city": "Leeds",
    "country": "United Kingdom",
    "IATA": "LBA",
    "ICAO": "EGNM",
    "latitude": 53.86589813232422,
    "longitude": -1.6605700254440308,
    "altitude": 681,
    "timezone": "0",
    "DST": "E",
    "tz_database": "Europe/London",
    "type": "airport",
    "source": "OurAirports",
    "city_latitude": 53.7975,
    "city_longitude": -1.5436
  },
  {
    "_id": "665d9f450350b667a00d4662",
    "name": "Hawarden Airport",
    "city": "Hawarden",
    "country": "United Kingdom",
    "IATA": "CEG",
    "ICAO": "EGNR",
    "latitude": 53.1781005859375,
    "longitude": -2.977780103683472,
    "altitude": 45,
    "timezone": "0",
    "DST": "E",
    "tz_database": "Europe/London",
    "type": "airport",
    "source": "OurAirports",
    "city_latitude": 53.1781005859375,
    "city_longitude": -2.977780103683472
  },